place_id,name,latitude,longitude,formatted_address,street_number,route,neighborhood,postal_code,curbside_pickup,price_level,rating,user_ratings_total,sun_open,sun_close,mon_open,mon_close,tue_open,tue_close,wed_open,wed_close,thu_open,thu_close,fri_open,fri_close,sat_open,sat_close
ChIJhYJfjL31NIgR3phOvhgBNEs,DBO's,40.4532124,-80.05370909999999,"635 Hillsboro St, Pittsburgh, PA 15204, USA",635,Hillsboro Street,Sheraden,15204,,,4.8,15,,,1200,1800,1200,1800,1200,1800,1200,1800,1200,1800,1000,1500
ChIJb1vGv1_2NIgRTz6RVpyC9Do,Angkor Restaurant,40.4271138,-80.0562528,"2350 Noblestown Rd # 18, Pittsburgh, PA 15205, USA",2350,Noblestown Road,Oakwood,15205,,2,4.6,282,,,1130,2100,1130,2100,1130,2100,1130,2100,1130,2100,1130,2100
ChIJb1vGv1_2NIgRHMolqSfzEd4,Blinky's Noble Grill & Bar,40.42765629999999,-80.0551851,"2350 Noblestown Rd # 11, Pittsburgh, PA 15205, USA",2350,Noblestown Road,Oakwood,15205,False,1,4.3,309,1100,0200,1100,0200,1100,0200,1100,0200,1100,0200,1100,0200,1100,0200
ChIJX9Zv-Zz2NIgRuL5tXjwo8mU,Lorenz Cafe,40.44476889999999,-80.0397115,"718 Lorenz Ave, Pittsburgh, PA 15220, USA",718,Lorenz Avenue,Elliott,15220,False,1,4.1,136,1200,2000,1200,2000,1200,2000,1200,2200,1200,2200,1200,2300,1200,2300
ChIJPUHlkVH3NIgRMwVmDx22dPM,NakaEndZone BBQ,40.43808,-80.054655,"1310 Crafton Blvd, Pittsburgh, PA 15205, USA",1310,Crafton Boulevard,Crafton Heights,15205,True,,4.8,195,1200,1900,,,,,1200,1900,1200,1900,1200,1900,1200,1900
ChIJFboKMAD0NIgR3_ajWICnKI0,Burgatory,40.4462352,-80.01091,"342 N Shore Dr, Pittsburgh, PA 15212, USA",342,North Shore Drive,North Shore,15212,True,2,4.5,3347,1100,2100,1100,2100,1100,2100,1100,2100,1100,2100,1100,2200,1100,2200
ChIJb1vGv1_2NIgRenmWzsqUhas,Wiggy’s,40.4271405,-80.05612649999999,"2350 Noblestown Rd, Pittsburgh, PA 15205, USA",2350,Noblestown Road,Oakwood,15205,False,1,4.3,382,1200,2000,,,1100,2100,1100,2100,1100,2100,1100,2200,1100,2200
ChIJJ8cTqwX0NIgRX60PcZPX4Qk,Lola Bistro,40.453668,-80.01688999999999,"1100 Galveston Ave, Pittsburgh, PA 15233, USA",1100,Galveston Avenue,Central Northside,15233,True,,4.8,73,1100,1500,,,,,1700,2200,1700,2200,1700,2200,1700,2200
ChIJ7WeBIaf1NIgRUhUutFl8HT4,Flavors Famous Street Food,40.4758776,-80.0315512,"3231 Brighton Rd, Pittsburgh, PA 15212, USA",3231,Brighton Road,Brighton Heights,15212,False,2,4.6,308,1200,2000,,,1100,2000,1100,2000,1100,2000,1100,2100,1100,2100
ChIJZ9HVIeX3NIgR-RdDK-aoOsM,Café 412,40.4416844,-80.0330972,"400 S Main St, Pittsburgh, PA 15220, USA",400,South Main Street,West End,15220,,,4.9,142,0830,1300,0730,1400,0730,1400,0730,1400,0730,1400,0730,1400,0830,1300
ChIJCZt9jGr0NIgRnHFkByewW6g,Cafe On the Corner,40.4692099,-80.0300121,"2700 Shadeland Ave, Pittsburgh, PA 15212, USA",2700,Shadeland Avenue,Marshall-Shadeland,15212,True,,4.8,67,,,,,1100,1700,1100,1700,1100,1700,1100,1700,1100,1700
ChIJ9a5DwUXxNIgRC6-yEQyMP8U,Cafe Cravings Gourmet Coffee Shop,40.4318448,-80.0156016,"402 Bigham St, Pittsburgh, PA 15211, USA",402,Bigham Street,Mount Washington,15211,True,1,4.8,162,0900,1400,0730,1500,0730,1500,0730,1500,0730,1500,0730,1500,0800,1400
ChIJNeHKtlTxNIgRckF-LWyvV9o,Café At The Point,40.44095009999999,-80.0083282,"Pittsburgh, PA 15222, USA",,,Downtown,15222,,,3.8,11,1000,1900,1000,1700,1000,1700,1000,1700,1000,1700,1000,1700,1000,1900
ChIJz9L393j1NIgRCTArZ4XFi04,The Charles Street Cafe,40.47034680000001,-80.01314219999999,"2601 Norwood Ave, Pittsburgh, PA 15214, USA",2601,Norwood Avenue,Perry South,15214,,,,,1200,1900,0800,1900,0800,1900,0800,1900,0800,1900,0800,1900,0800,1200
ChIJW6W5FfzzNIgRi6lgJLW8Aho,The Warhol Café,40.44837949999999,-80.0024948,"117 Sandusky St, Pittsburgh, PA 15212, USA",117,Sandusky Street,North Shore,15212,,,3.9,40,1000,1500,1000,1500,,,1000,1500,1000,1500,1000,2130,1000,1500
ChIJA7LQoAnxNIgRgz6A5pCAn5Y,Bae Bae's Cafe,40.4436012,-79.9965213,"945 Liberty Ave, Pittsburgh, PA 15222, USA",945,Liberty Avenue,Downtown,15222,,,4.8,54,1000,1600,0900,1600,0900,1600,0900,1600,0900,1600,0900,1600,1000,1600
ChIJ5z5YBGzzNIgRu-3O-CYgRE8,The Garden Cafe,40.45765,-79.9952325,"1022 Chestnut St, Pittsburgh, PA 15212, USA",1022,Chestnut Street,East Allegheny,15212,,,4.8,79,0800,1600,0700,1600,0700,1600,0700,1600,0700,1600,0700,1600,0700,1600
ChIJe4jpY2fxNIgRn_6d_xowFCY,Cares CommuniTEA Cafe,40.44248359999999,-79.9822058,"1836 Centre Ave, Pittsburgh, PA 15219, USA",1836,Centre Avenue,Crawford-Roberts,15219,,,4.9,49,,,0800,1600,0800,1600,0800,1600,0800,1600,0800,1600,,
ChIJ1_J7HkrxNIgRfXm2Q5-nXq8,Brother Andre's Cafe,40.4399025,-79.9908569,"164 Washington Pl, Pittsburgh, PA 15219, USA",164,Washington Place,Downtown,15219,,,5,44,,,0730,1530,0730,1530,0730,1530,0730,1530,0730,1530,,
ChIJq6pqogL0NIgRHpeb1YPLYew,River View Cafe,40.44553659999999,-80.0183184,"1 Allegheny Ave, Pittsburgh, PA 15212, USA",1,Allegheny Avenue,Chateau,15212,,,3.3,23,1000,1700,1000,1700,1000,1700,1000,1700,1000,1700,1000,1700,1000,1700
ChIJ11rR6lfxNIgR03gTMwov9Cw,Crazy Mocha,40.4428438,-79.9988939,"801 Liberty Ave, Pittsburgh, PA 15222, USA",801,Liberty Avenue,Downtown,15222,False,1,4.3,303,0900,1300,0700,1700,0700,1700,0700,1700,0700,1700,0700,1700,0900,1300
ChIJx0xROVHxNIgRrOWSgKOkKQg,Point Cafe,40.438478,-80.001458,"Point Park University, 201 Wood St, Pittsburgh, PA 15222, USA",201,Wood Street,Downtown,15222,,,2.7,13,1900,0000,0700,0000,0700,0000,0700,0000,0700,0000,0700,0000,1900,0000
ChIJA6GHZ8LzNIgRlmHwal0mXe4,Soluna PGH - Coffee & Mezcal Bar,40.4490083,-79.987438,"1601 Penn Ave, Pittsburgh, PA 15222, USA",1601,Penn Avenue,Strip District,15222,True,1,4.6,142,0800,1400,0700,1400,0700,1400,0700,1400,0700,1400,0700,1400,0800,1400
ChIJ1ap81jr3NIgRcMa0_B2Xiks,No Name Cafe,40.3954238,-80.0226468,"536 Brookline Blvd, Pittsburgh, PA 15226, USA",536,Brookline Boulevard,Brookline,15226,True,,4.6,27,0800,1400,0900,1400,0900,1400,,,,,0900,1500,0900,1500
ChIJb16-F93zNIgRHTza1dKHLho,De Fer Coffee & Tea,40.451692,-79.98440699999999,"2002 Smallman St, Pittsburgh, PA 15222, USA",2002,Smallman Street,Strip District,15222,False,2,4.8,606,0800,2000,0800,1700,0700,2000,0700,2000,0700,2000,0700,2100,0800,2100
ChIJp9joIIzxNIgRDJd61ntI7Tg,De Fer Coffee & Tea @ Market Square,40.4412024,-80.0024625,"435 Market St, Pittsburgh, PA 15222, USA",435,Market Street,Downtown,15222,,,4.9,13,,,0800,1500,0800,1500,0800,1500,0800,1500,0800,1500,,
ChIJj9KN2XTzNIgRcQ9pa7ipKc4,Government Center Espresso,40.45458479999999,-79.99822499999999,"719 East St, Pittsburgh, PA 15212, USA",719,East Street,East Allegheny,15212,,,4.6,9,0800,1400,0800,1400,0800,1400,0800,1400,0800,1400,0800,1500,0800,1500
ChIJ65fOYW7xNIgRysm3Bt-J0tc,Le Petit Cafe & Grille,40.428378,-79.977329,"2004 E Carson St, Pittsburgh, PA 15203, USA",2004,East Carson Street,South Side Flats,15203,True,1,4.8,186,0900,1500,,,0900,1700,0900,1700,0900,1700,0900,1700,0900,1700
ChIJK8_lkybyNIgR43zvp69dapA,The Cafe Carnegie,40.443891,-79.948976,"4400 Forbes Ave, Pittsburgh, PA 15213, USA",4400,Forbes Avenue,North Oakland,15213,False,2,4.1,123,1100,1400,1100,1400,,,1100,1400,1100,1400,1100,1400,1100,1400
ChIJbarnmffzNIgRTTHTIIPolZg,J.R. Coffee Shop,40.4559981,-80.00664499999999,"1200 Federal St, Pittsburgh, PA 15212, USA",1200,Federal Street,Central Northside,15212,,1,4.7,78,,,0600,1300,0600,1300,0600,1300,0600,1300,0600,1300,,
ChIJbYHoGSvyNIgRMM_kAcafwn0,Cafe at the Pete,40.44414699999999,-79.96236119999999,"3719 Terrace St, Pittsburgh, PA 15213, USA",3719,Terrace Street,North Oakland,15213,,,,,1100,1900,0800,1900,0800,1900,0800,1900,0800,1900,0800,1900,1100,1900
ChIJzcfPD0LxNIgRtxMnMJi_aes,Cafe Du Jour,40.4288953,-79.98714489999999,"1107 E Carson St, Pittsburgh, PA 15203, USA",1107,East Carson Street,South Side Flats,15203,,,4.7,174,,,,,,,,,1500,2100,1500,2100,1500,2100
ChIJU_bticTzNIgRITfeUtt1V5w,James Cafe,40.45497609999999,-79.97984989999999,"2550 Smallman St, Pittsburgh, PA 15222, USA",2550,Smallman Street,Strip District,15222,,,4.4,15,0800,1500,0700,1600,0700,1600,0700,1600,0700,1600,0700,1600,0800,1600
ChIJ1Rs45933NIgRw9lKs0mGS0o,Caliente Pizza & Draft House,40.44024899999999,-80.0807622,"288 W Steuben St, Pittsburgh, PA 15205, USA",288,West Steuben Street,Fairywood,15205,True,,4.2,163,1100,2200,1100,2200,1100,2200,1100,2200,1100,2200,1100,2300,1100,2300
ChIJb1vGv1_2NIgRIDgpsjE9d3Q,Eggs R Us,40.42753,-80.0555318,"2350 Noblestown Rd, Pittsburgh, PA 15205, USA",2350,Noblestown Road,Oakwood,15205,,1,4,510,0600,1400,0600,1400,0600,1400,0600,1400,0600,1400,0600,1400,0600,1400
ChIJsRlsnIr2NIgRhMWMKrdRWY4,Sammy's Pizzeria,40.430138,-80.053179,"2145 Noblestown Rd, Pittsburgh, PA 15205, USA",2145,Noblestown Road,Westwood,15205,True,1,4.4,256,,,,,1100,2000,1100,2000,1100,2000,1100,2100,1600,2100
ChIJ7Qg5r9b1NIgRsfDQeFiPDQ0,B & M Market,40.4540565,-80.0598018,"3038 Chartiers Ave, Pittsburgh, PA 15204, USA",3038,Chartiers Avenue,Sheraden,15204,,,4.2,52,0700,2100,0700,2100,0700,2100,0700,2100,0700,2100,0700,2100,0700,2100
ChIJX3TbmQT0NIgRjXCvau84uyM,Lindos Restaurant,40.4513889,-80.01833330000001,"947 Western Ave, Pittsburgh, PA 15233, USA",947,Western Avenue,Allegheny-West,15233,,1,4.2,625,0700,1500,0700,1500,0700,1500,0700,1500,0700,1500,0700,1500,0700,1500
ChIJVZKH5vDzNIgRtHfQm2LeeOE,Legends Eatery,40.4565844,-80.0014734,"500 E North Ave, Pittsburgh, PA 15212, USA",500,East North Avenue,East Allegheny,15212,True,2,4.7,446,,,1600,2000,1600,2000,1600,2000,1600,2000,1600,2000,1600,2000
ChIJQ-R_o2n0NIgRDT40vwLXim8,Cerasoli Pizzeria,40.4735785,-80.0289562,"3053 Brighton Rd, Pittsburgh, PA 15212, USA",3053,Brighton Road,Marshall-Shadeland,15212,,1,4.3,225,1300,2000,,,1100,2000,1100,2000,1100,2000,1100,2000,1100,2000
ChIJoYdANg_0NIgRPb8Dh39XL-Y,Commonplace Coffee,40.457032,-80.01481199999999,"1501 Buena Vista St, Pittsburgh, PA 15212, USA",1501,Buena Vista Street,Central Northside,15212,,1,4.7,605,0700,1900,0700,1800,0700,1800,0700,1800,0700,1800,0700,1900,0700,1900
ChIJWdR2eVbxNIgRzpdEhWgxgmE,Rock 'n' Joe Coffee (Penn Ave),40.44242979999999,-80.0028645,"524 Penn Ave, Pittsburgh, PA 15222, USA",524,Penn Avenue,Downtown,15222,False,1,4.6,354,0800,1500,0700,1500,0700,1500,0700,1500,0700,1500,0700,1500,0800,1500
ChIJr9-tVFfxNIgRUSGsRKuY5Bg,Apollo Cafe,40.4391559,-79.9980466,"429 Forbes Ave #100, Pittsburgh, PA 15219, USA",429,Forbes Avenue,Downtown,15219,,1,4.5,176,,,0700,1500,0700,1500,0700,1500,0700,1500,0700,1500,,
ChIJMxT6nlPxNIgRFeNI5VxIRTk,Bluebird Kitchen,40.4390325,-80.0061492,"11 Stanwix St, Pittsburgh, PA 15222, USA",11,Stanwix Street,Downtown,15222,,,3.8,43,,,0730,1400,0730,1400,0730,1400,0730,1400,0730,1400,,
ChIJ0TrRNxXzNIgRAhNJBe7AZ0U,La Prima Espresso Company - Downtown,40.445623,-79.9939559,"1100 Smallman St, Pittsburgh, PA 15222, USA",1100,Smallman Street,Strip District,15222,False,1,4.5,112,0700,1500,0630,1430,0630,1430,0630,1430,0630,1430,0630,1430,0700,1500
ChIJ0QkVm4X1NIgRi5kgmNwBiIM,Kookaburra Kitchen,40.45345150000001,-80.00995189999999,"700 Arch St, Pittsburgh, PA 15212, USA",700,Arch Street,Allegheny Center,15212,False,,4,4,1000,1600,1000,1600,,,1000,1600,1000,1600,1000,1600,1000,1600
ChIJZXcN1HnzNIgR6bUI8nL1uV8,Yinz Coffee,40.4556348,-80.00650390000001,"2 E North Ave, Pittsburgh, PA 15212, USA",2,East North Avenue,Central Northside,15212,False,,4.7,148,0700,1800,0600,1800,0600,1800,0600,1800,0600,1800,0600,1800,0700,1800
ChIJXd7742n3NIgRq9G16_xA6uI,Sharks Fish & Chicken,40.4441899,-80.0405876,"1000 Chartiers Ave, Pittsburgh, PA 15220, USA",1000,Chartiers Avenue,Elliott,15220,True,2,3.4,14,1100,2200,1100,2200,1100,2200,1100,2200,1100,2200,1100,2300,1100,2300
ChIJp7J-MaL1NIgRYr9GHwUs5Ls,Leo. a public house,40.4539109,-80.0198568,"1207 Allegheny Ave, Pittsburgh, PA 15233, USA",1207,Allegheny Avenue,Manchester,15233,True,,4.7,130,1600,2200,,,1600,2300,1600,2300,1600,2300,1600,0000,1600,0000
ChIJX5GVBIL1NIgRykfo3j2bR_Q,mian,40.4478837,-80.0221627,"777 Casino Dr, Pittsburgh, PA 15212, USA",777,Casino Drive,Chateau,15212,,,3,9,1800,0100,1800,0100,,,,,1800,0100,1800,0100,1800,0100
ChIJi4fvJZb2NIgRn4e39Wyovvc,Johnny's Diner,40.43370850000001,-80.0314049,"1900 Woodville Ave, Pittsburgh, PA 15220, USA",1900,Woodville Avenue,West End,15220,False,1,4.7,486,,,0700,1500,0700,1500,0700,1500,0700,1500,0700,1500,0700,1300
ChIJaa78xV70NIgR2lYFoRs3cyU,Pittsburgh Fish & Chicken,40.484478,-80.036452,"1312 Benton Ave, Pittsburgh, PA 15212, USA",1312,Benton Avenue,Brighton Heights,15212,,1,4.1,257,1000,1900,1000,2100,1000,2100,1000,2100,1000,2100,1000,2100,1000,2100
ChIJLwV565z2NIgRIRvVCDCb7WI,Walid's Fish And Chicken,40.4441769,-80.040565,"1000 Chartiers Ave, Pittsburgh, PA 15220, USA",1000,Chartiers Avenue,Elliott,15220,,1,3.7,106,1000,2200,1000,2200,1000,2200,1000,2200,1000,2200,1000,2200,1000,2200
ChIJqTRpZFr0NIgRfB8sXNIOp3o,California Coffee Bar,40.4807183,-80.04150539999999,"3619 California Ave, Pittsburgh, PA 15212, USA",3619,California Avenue,Brighton Heights,15212,,1,4.7,276,0800,1500,0700,1500,0700,1500,0700,1500,0700,1500,0700,1500,0800,1500
ChIJy5jq0TjxNIgRcTz4JoBNDgo,Black Forge Coffee House I - Allentown,40.421515,-79.992435,"1206 Arlington Ave, Pittsburgh, PA 15210, USA",1206,Arlington Avenue,Allentown,15210,False,1,4.6,782,0900,1600,0700,1600,0700,1600,0700,1600,0700,1600,0700,1600,0900,1600
ChIJb1vGv1_2NIgRSBcItOk_ru0,Mineo's Pizza,40.42749999999999,-80.055601,"2350 Noblestown Rd, Pittsburgh, PA 15205, USA",2350,Noblestown Road,Oakwood,15205,,2,3.8,197,1000,2200,1000,2200,1000,2200,1000,2200,1000,2200,1000,2300,1000,2300
ChIJJZ5vVPX2NIgRSxdM1T5midk,Arby's,40.42849429999999,-80.05319829999999,"2251 Noblestown Rd, Crafton, PA 15205, USA",2251,Noblestown Road,Westwood,15205,,1,4.2,505,1000,2200,1000,2200,1000,2200,1000,2200,1000,2200,1000,2200,1000,2200
ChIJlRGtqor2NIgROYUiwpdjbGg,Wendy's,40.4290379,-80.0532206,"2237 Noblestown Rd, Pittsburgh, PA 15205, USA",2237,Noblestown Road,Westwood,15205,False,1,3.4,845,0630,0000,0630,0000,0630,0000,0630,0000,0630,0000,0630,0000,0630,0000
ChIJ_8x4WV72NIgRdHZtt9X8GVU,Brighton Hot Dog Shoppe,40.426838,-80.057265,"2401 Noblestown Rd, Pittsburgh, PA 15205, USA",2401,Noblestown Road,Oakwood,15205,,1,4.4,835,0730,2000,0730,2100,0730,2100,0730,2100,0730,2100,0730,2100,0730,2100
ChIJt_Ur43L3NIgRacyHl8fofXc,Wing SZN - Crafton Heights,40.4382125,-80.05603669999999,"1511 Stratmore St, Pittsburgh, PA 15205, USA",1511,Stratmore Street,Crafton Heights,15205,,,3.2,5,1200,2000,1000,2140,1000,2140,1000,2140,1000,2140,1000,2140,1000,2140
ChIJu3SaTPX2NIgR74g_OkXoxZ0,China Buffet King,40.42848499999999,-80.052526,"2249 Noblestown Rd, Pittsburgh, PA 15205, USA",2249,Noblestown Road,Westwood,15205,False,1,3.8,1533,1130,2100,1130,2100,,,1130,2100,1130,2100,1130,2130,1130,2130
ChIJD2S7oJf2NIgRlyHw08SanEo,Tramp's,40.435685,-80.03402,"412 Greentree Rd, Pittsburgh, PA 15220, USA",412,Greentree Road,West End,15220,False,1,4.2,316,1200,0200,1130,0200,1130,0200,1130,0200,1130,0200,1130,0200,1100,0200
ChIJOQEpVtn2NIgRYSWgTW5Jheg,El Paisano | Mexican Restaurant,40.41111110000001,-80.02499999999999,"1542 Beechview Ave, Pittsburgh, PA 15216, USA",1542,Beechview Avenue,Beechview,15216,,1,4.2,236,1000,2100,1000,2100,1000,2100,1000,2100,1000,2100,1000,2100,1000,2100
ChIJ07YvcLH2NIgRYuOrEBUNga0,Bigham Tavern,40.43243820000001,-80.0151844,"321 Bigham St, Pittsburgh, PA 15211, USA",321,Bigham Street,Mount Washington,15211,True,2,4.5,1490,1000,0200,1100,0200,1100,0200,1100,0200,1100,0200,1100,0200,1000,0200
ChIJO_NPgjr3NIgRsh37RlCnxCg,802 Bean Company,40.39351,-80.020089,"802 Brookline Blvd, Pittsburgh, PA 15226, USA",802,Brookline Boulevard,Brookline,15226,False,,4.8,166,,,0700,1600,0700,1600,0700,1600,0700,1600,0700,1600,0800,1500
ChIJS2LvJBXxNIgRrTEEM5y0G4g,Corner Cafe,40.42193469999999,-79.9840862,"2500 S 18th St, Pittsburgh, PA 15203, USA",2500,South 18th Street,South Side Slopes,15203,False,,4.2,45,1600,0200,1600,0200,1600,0200,1600,0200,1600,0200,1600,0200,1600,0200
ChIJj3vuFwX3NIgRb1BDekR9gfQ,Starbucks,40.3993608,-80.043865,"3145 Banksville Road, Banksville Center Dr, Pittsburgh, PA 15216, USA",,Banksville Center Drive,Banksville,15216,,2,4.5,511,0430,2100,0430,2130,0430,2130,0430,2130,0430,2130,0430,2130,0430,2100
ChIJNToRgcX1NIgR-GSNMKCtX1Y,Adda Coffee & Tea — Northside,40.4518953,-80.017696,"926 Western Ave, Pittsburgh, PA 15233, USA",926,Western Avenue,Allegheny-West,15233,True,,4.6,114,0800,1500,0730,1400,0730,1400,0730,1400,0730,1400,0730,1400,0800,1500
ChIJz1P8hZz2NIgRRuLBP_kT7FA,Terry's Snack Shop,40.4434487,-80.0398295,"906 Chartiers Ave, Pittsburgh, PA 15220, USA",906,Chartiers Avenue,Elliott,15220,,,4.7,3,,,,,,,,,,,,,,
ChIJt62jMx30NIgRibh1mXpcjig,North Shore Cafe,40.4494833,-80.02717849999999,"1501 Reedsdale St # 2, Pittsburgh, PA 15233, USA",1501,Reedsdale Street,Chateau,15233,,1,4.4,30,,,0900,1400,0900,1400,0900,1400,0900,1400,0900,1400,,
ChIJnTohch30NIgR3yhnVJ8oJJc,Wheelhouse,40.44765659999999,-80.0225727,"777 Casino Dr, Pittsburgh, PA 15212, USA",777,Casino Drive,Chateau,15212,False,2,4,321,1100,2100,1100,2100,1100,2100,1100,2100,1100,2100,1100,2300,1100,2300
ChIJBST-0Jj2NIgRuZY91BqYQY0,Bella Monte Pizza,40.44163289999999,-80.0333917,"410 S Main St, Pittsburgh, PA 15220, USA",410,South Main Street,West End,15220,True,2,4.1,316,1100,2200,,,1100,2300,1100,2300,1100,2300,1100,0000,1100,0000
ChIJPz5dmKX2NIgRgcESndEXxLQ,Monterey Bay Fish Grotto,40.4386441,-80.0213101,"1411 Grandview Ave, Pittsburgh, PA 15211, USA",1411,Grandview Avenue,Duquesne Heights,15211,True,4,4.7,1859,1630,2100,1630,2100,1630,2100,1630,2100,1630,2100,1630,2200,1630,2200
ChIJbdz5ZEv1NIgRB59fHPt9DgA,Martorano's Prime,40.4476994,-80.0225767,"777 Casino Dr, Pittsburgh, PA 15212, USA",777,Casino Drive,Chateau,15212,False,,3.3,71,,,,,,,,,,,,,,
ChIJ-QhLYVbxNIgR7Hk4Ca0Qesc,täkō,40.4423048,-80.0021624,"214 6th St, Pittsburgh, PA 15222, USA",214,6th Street,Downtown,15222,,2,4.5,1401,1600,2100,,,,,1700,2200,1700,2200,1700,2300,1700,2300
ChIJixr3YwL0NIgRIM-xM8ZFYFE,Primanti Bros.,40.44670790000001,-80.0168334,"100 Art Rooney Ave, Pittsburgh, PA 15212, USA",100,Art Rooney Avenue,North Shore,15212,,1,4.3,135,1100,2000,1100,2000,1100,2000,1100,2000,1100,2000,1100,2100,1100,2100
ChIJd7igQwT0NIgRioSao7dLIBc,Nicky's Thai Kitchen,40.4520913,-80.0162263,"856 Western Ave, Pittsburgh, PA 15233, USA",856,Western Avenue,Allegheny-West,15233,,2,4.5,971,1700,2100,,,1700,2100,1700,2100,1700,2100,1700,2130,1700,2130
ChIJQWJcZ0vxNIgR4EY0p31x-BU,J & J's Family Restaurant & Catering,40.4292989,-80.00748519999999,"300 Shiloh St, Pittsburgh, PA 15211, USA",300,Shiloh Street,Mount Washington,15211,True,1,4.6,539,0800,1600,0800,1700,0800,1700,0800,1600,0800,1600,0800,1600,0800,1600
ChIJKcgUmvfzNIgRBLShl8PA9U8,El Burro,40.4559021,-80.0065765,"1108 Federal St, Pittsburgh, PA 15212, USA",1108,Federal Street,Central Northside,15212,,1,4.2,679,1100,2100,1130,2100,1130,2100,1130,2100,1130,2100,1130,2100,1100,2100
ChIJrU-zYQT0NIgRDOEgCd7HCKk,Giorgio's Place,40.4519852,-80.0170299,"908 Western Ave, Pittsburgh, PA 15233, USA",908,Western Avenue,Allegheny-West,15233,,1,4.5,465,,,0930,2130,0930,2130,0930,2130,0930,2130,0930,2130,1100,2130
ChIJje1fLV3zNIgRPJ7_uwJbcxI,Taps and Taco,40.4479426,-80.00439159999999,"115 Federal St, Pittsburgh, PA 15212, USA",115,Federal Street,North Shore,15212,,,3.9,72,,,,,,,1100,1800,1100,1800,1100,2000,1100,2000
ChIJxTDgjgT0NIgRewoOyzRCUxE,Peppi's,40.4516667,-80.0175,"927 Western Ave, Pittsburgh, PA 15233, USA",927,Western Avenue,Allegheny-West,15233,,1,4.7,1310,,,1030,1900,1030,2000,1030,2000,1030,2000,1030,2000,1030,1700
ChIJe02f2ln0NIgRuSKZiAt1vyg,Miller's Seafood House,40.4851621,-80.0418933,"3853 California Ave, Pittsburgh, PA 15212, USA",3853,California Avenue,Brighton Heights,15212,,2,3.9,308,1100,0200,1100,0200,1100,0200,1100,0200,1100,0200,1100,0200,1100,0200
ChIJ61FkY1r0NIgRII7jzrAhpqM,Pops & Son Pizzeria,40.4809807,-80.0414764,"3627 California Ave, Pittsburgh, PA 15212, USA",3627,California Avenue,Brighton Heights,15212,,1,3.4,206,,,1600,2230,1600,2230,1100,2230,1100,2230,1100,2230,1100,2230
ChIJNcn3HWj0NIgRSw7-siX98oE,Wiseguys Pizza,40.4763889,-80.03111109999999,"1223 Woods Run Ave, Pittsburgh, PA 15212, USA",1223,Woods Run Avenue,Brighton Heights,15212,,1,4,256,1500,2100,1100,2200,1100,2200,1100,2200,1100,2200,1100,2300,1200,2300
ChIJDYClFV71NIgRhvMb_CtJ2L4,Ida's Sandwich Shop,40.4903388,-80.0188202,"3921 Perrysville Ave, Pittsburgh, PA 15214, USA",3921,Perrysville Avenue,Perry North,15214,,,4.9,43,0800,1500,,,0700,1700,0700,1700,0700,1700,0700,1700,0800,1500
ChIJHWATNfDzNIgRDHPJXMN4wFw,Huszar,40.4567312,-79.9988965,"627 E North Ave #4844, Pittsburgh, PA 15212, USA",627,East North Avenue,East Allegheny,15212,,2,4.6,435,1200,1900,,,1200,2000,1200,2000,1200,2000,1200,2000,1200,2000
ChIJm-T3ZwT0NIgRXhIHSZHyBB0,Modern Cafe,40.4521506,-80.0164403,"862 Western Ave, Pittsburgh, PA 15233, USA",862,Western Avenue,Allegheny-West,15233,,1,4.5,405,,,1100,2300,1100,2300,1100,0030,1100,0030,1100,0130,1030,0130
ChIJhxsVUjH1NIgRNfLs1waTrkc,Kay & Diane’s 1910 Room,40.4589787,-80.0278065,"1910 Manhattan St, Pittsburgh, PA 15233, USA",1910,Manhattan Street,Manchester,15233,,,,,1700,2200,,,,,,,,,,,,
ChIJbXv84wX0NIgRocFxXgoWztk,Riggs Lounge,40.45477459999999,-80.0146713,"1206 Brighton Rd, Pittsburgh, PA 15233, USA",1206,Brighton Road,Central Northside,15233,False,1,4.5,198,,,1500,0100,1500,0100,1500,0100,1500,0100,1500,0100,1500,0100
ChIJaZkHl_f1NIgRDo8-Ih0S-68,ShadoBeni - Trinidadian Vegan Cuisine,40.4578275,-80.0156868,"1534 Brighton Rd, Pittsburgh, PA 15212, USA",1534,Brighton Road,Central Northside,15212,,,5,58,1100,1500,,,,,1130,1900,1130,1900,1130,1900,1100,1500
ChIJV-WNXQT0NIgRIlshvd0VSxE,Bier's Pub & War Streets Brewery,40.4520412,-80.01676789999999,"900 Western Ave, Pittsburgh, PA 15233, USA",900,Western Avenue,Allegheny-West,15233,True,,4.5,528,1030,2100,,,,,1130,2200,1130,2200,1130,2300,1030,2300
ChIJjwuJs67zNIgRf-pZyHcOnq0,Pauline's Caribbean Soul Cuisine,40.4561256,-80.0065359,"1204 Federal St, Pittsburgh, PA 15212, USA",1204,Federal Street,Central Northside,15212,,2,4.5,110,,,1100,2000,1100,2000,1100,2000,1100,2000,1100,2000,1200,1900
ChIJ-2C3sPfzNIgRpVpqW11Hncs,Siempre Algo,40.453526,-80.00108279999999,"414 E Ohio St, Pittsburgh, PA 15212, USA",414,East Ohio Street,East Allegheny,15212,False,,4.7,194,,,,,,,1700,2200,1700,2200,1700,2200,1700,2300
ChIJR4nVEVbxNIgRbbtd9j788xU,Braddock's Rebellion,40.4437998,-80.0024849,"107 6th St, Pittsburgh, PA 15222, USA",107,6th Street,Downtown,15222,,3,4.1,282,0930,0000,1500,0000,1500,0000,1500,0000,1500,0000,1100,0100,0930,0100
ChIJ35Bl9PjzNIgRTIhia8PVFEY,Parkhurst Dining Services,40.4511829,-80.0048758,"10 Allegheny Square E, Pittsburgh, PA 15212, USA",10,Allegheny Square East,Allegheny Center,15212,,,5,1,,,0700,1400,0700,1400,0700,1400,0700,1400,0700,1400,,
ChIJGRG_kPrzNIgRJRT0EjM9vSI,Lillen's Restaurant,40.45359670000001,-79.9994251,"535 E Ohio St, Pittsburgh, PA 15212, USA",535,East Ohio Street,East Allegheny,15212,True,1,3.8,237,0800,2200,0800,2300,0800,2300,0800,2300,0800,2300,0800,0000,0800,0000
ChIJp2EIZfDzNIgRq-iQ1IuOs3Y,Max's Allegheny Tavern,40.455183,-79.999742,"537 Suismon St, Pittsburgh, PA 15212, USA",537,Suismon Street,East Allegheny,15212,,2,4.5,1815,,,,,1100,2100,1100,2100,1100,2100,1100,2200,1100,2200
ChIJZapX9vjzNIgRSu7rbfVfChA,Federal Galley,40.4515068,-80.00603389999999,"200 Children's Way, Pittsburgh, PA 15212, USA",200,Children's Way,Allegheny Center,15212,,2,4.5,1986,1000,2100,,,1130,2200,1130,2200,1130,2200,1130,2300,1000,2300
ChIJ09EneFjxNIgRypwsHoGxIE8,Condado Tacos,40.44379209999999,-79.99549449999999,"971 Liberty Ave, Pittsburgh, PA 15222, USA",971,Liberty Avenue,Downtown,15222,,1,4.5,3508,1100,2300,1100,2300,1100,2300,1100,2300,1100,2300,1100,0000,1100,0000
ChIJTySFk8PzNIgR9oYnssqat_A,THE LUNCH BOX,40.45721179999999,-80.00781359999999,"1307 Federal St, Pittsburgh, PA 15212, USA",1307,Federal Street,Central Northside,15212,,1,5,13,,,0800,1500,0800,1500,0800,1500,0800,1500,0800,1500,,
ChIJl6nD-7HzNIgRcECP9TxqAgI,Shaka Restaurant,40.4515068,-80.00603389999999,"Inside Federal Galley, 200 Children's Way, Pittsburgh, PA 15212, USA",200,Children's Way,Allegheny Center,15212,,,4,20,1000,2000,,,1130,2000,1130,2000,1130,2000,1130,2100,1000,2100
ChIJL9Eeh873NIgR2hDDPRrp9eQ,McIntosh Eatery,40.4357204,-80.0339726,"410 Greentree Rd, Pittsburgh, PA 15220, USA",410,Greentree Road,West End,15220,True,,,,1100,1900,1100,1900,1100,0700,1100,1900,1100,1900,1100,1900,1100,1900
ChIJT3VNbcL2NIgRJhpHdjLRND0,Pittsburgh Barbecue Company,40.4203608,-80.0306725,"1000 Banksville Ave, Pittsburgh, PA 15216, USA",1000,Banksville Avenue,Banksville,15216,,2,4.3,266,1100,1900,,,,,1100,1900,1100,1900,1100,1900,1100,1900
ChIJa_26Rt32NIgR_dkqGwuJicE,Eat'n Park,40.4171322,-80.0301411,"1250 Banksville Rd, Pittsburgh, PA 15216, USA",1250,Banksville Road,Banksville,15216,False,1,4.1,2208,0700,2300,0700,2300,0700,2300,0700,2300,0700,2300,0700,2300,0700,2300
ChIJC2lwoS73NIgRD03ZeaPgShI,Steel Mill Saloon,40.4381327,-80.0192792,"1225 Grandview Ave, Pittsburgh, PA 15211, USA",1225,Grandview Avenue,Duquesne Heights,15211,False,,4.3,134,0900,0000,1100,0000,1100,0000,1100,0000,1100,0000,1100,0200,0900,0200
ChIJi3B3Jdn2NIgRIBfXm2xDBdU,The Huddle,40.40913889999999,-80.0249461,"1648 Broadway Ave, Pittsburgh, PA 15216, USA",1648,Broadway Avenue,Beechview,15216,,1,4.5,231,,,,,1600,0200,1500,0200,1500,0200,1500,0200,1500,0200
ChIJwW2TOhvxNIgRjQgQNnvtL1g,Shiloh Gastro,40.4309853,-80.0070227,"123 Shiloh St, Pittsburgh, PA 15211, USA",123,Shiloh Street,Mount Washington,15211,True,2,4.4,1075,1100,2100,1600,2200,1600,2200,1600,2200,1200,2200,0000,2300,1200,2300
ChIJuWIkXnf3NIgRTkga-T2a3OU,La Cocina de Betty,40.4103839,-80.024463,"1605 Broadway Ave, Pittsburgh, PA 15216, USA",1605,Broadway Avenue,Beechview,15216,True,,4.4,150,1100,2100,0900,2100,0900,2100,0900,2100,0900,2100,0900,2100,1100,2100
ChIJsZMZQkvxNIgRTT3U6FiRBx4,"Kavsar (No dine in,only take away or delivery)",40.42889600000001,-80.00738299999999,"16 Southern Ave, Pittsburgh, PA 15211, USA",16,Southern Avenue,Mount Washington,15211,True,2,4.3,551,1230,2130,1230,2130,1230,2130,1230,2130,1230,2130,1230,2130,1230,2130
ChIJNeGZU0rxNIgRF4szdKzPtMI,La Tavola Italiana Restaurant,40.4267981,-80.00565309999999,"1 Boggs Ave, Pittsburgh, PA 15211, USA",1,Boggs Avenue,Mount Washington,15211,,2,4.4,362,,,,,1700,2100,1700,2100,1700,2100,1700,2200,1700,2200
ChIJs2Jlv1bxNIgR1BjwPx-efhY,Bluebird Kitchen,40.4405464,-80.0017735,"221 Forbes Ave, Pittsburgh, PA 15222, USA",221,Forbes Avenue,Downtown,15222,,2,4.4,179,,,0700,1500,0700,1500,0700,1500,0700,1500,0700,1500,,
ChIJocY703XxNIgRA9d4UXqFr3Y,Big Dog Coffee,40.4259315,-79.9667171,"2717 Sarah St, Pittsburgh, PA 15203, USA",2717,Sarah Street,South Side Flats,15203,False,1,4.7,823,0730,1700,0600,1700,0600,1700,0600,1700,0600,1700,0600,1700,0730,1700
ChIJEX3InVbxNIgR7Ks0egVltU0,Nicholas Coffee & Tea Co.,40.44111589999999,-80.00286349999999,"23 Market Square, Pittsburgh, PA 15222, USA",23,Market Square,Downtown,15222,,1,4.5,179,,,0800,1530,0800,1530,0800,1530,0800,1530,0800,1530,0900,1500
ChIJx5zxCnHxNIgRPH6fkywaXag,Cupka's Cafe II,40.42815459999999,-79.97230569999999,"2314 E Carson St, Pittsburgh, PA 15203, USA",2314,East Carson Street,South Side Flats,15203,False,1,4.4,313,1000,0200,1000,0200,1000,0200,1000,0200,1000,0200,1000,0200,1000,0200
ChIJp-Y2qlr3NIgRnaDZ8mfO25w,Dunkin',40.4122911,-80.030688,"1523 Banksville Rd, Pittsburgh, PA 15216, USA",1523,Banksville Road,Beechview,15216,False,1,2.9,134,0500,2000,0500,2000,0500,2000,0500,2000,0500,2000,0500,2000,0500,2000
ChIJVVUibMvzNIgRVZ1yKw3j6MI,Kaibur Coffee,40.457464,-79.9658541,"3138 Dobson St, Pittsburgh, PA 15219, USA",3138,Dobson Street,Polish Hill,15219,,1,4.7,270,0900,1500,0800,1500,0800,1500,0800,1500,0800,1500,0800,1500,0900,1500
ChIJe3ympVbxNIgRq2bl_i37GQA,Starbucks,40.44025399999999,-80.00225999999999,"7 Market Square, Pittsburgh, PA 15222, USA",7,Market Square,Downtown,15222,,2,4.1,681,0530,2030,0530,2100,0530,2100,0530,2100,0530,2100,0530,2100,0530,2030
ChIJw15qL3TxNIgR1-JYqkctWxo,Cup-Ka-Joe,40.42594700000001,-79.9674545,"31 S 27th St, Pittsburgh, PA 15203, USA",31,South 27th Street,South Side Flats,15203,,1,4.5,198,0700,2000,0600,2000,0600,2000,0600,2000,0600,2000,0600,2000,0700,2000
ChIJ9buawkvyNIgRtuSs0OqiK6I,Ineffable Cà Phê,40.4647586,-79.9593115,"3920 Penn Ave, Pittsburgh, PA 15224, USA",3920,Penn Avenue,Lower Lawrenceville,15224,True,2,4.6,407,0800,1500,0800,1500,0800,1500,0800,1500,0800,1500,0800,1500,0800,1500
ChIJJdPcGIrzNIgR4he_3_nQQxM,COLOMBINO Coffee & Cacao Bar,40.45174189999999,-79.9833991,"2031 Penn Ave, Pittsburgh, PA 15222, USA",2031,Penn Avenue,Strip District,15222,,,4.6,48,0900,1700,0900,1700,0900,1600,0900,1600,0900,1700,0800,1700,0900,1700
ChIJT1r2IFj3NIgRrJ8iwasf9HE,Beto's Pizza,40.4127068,-80.030394,"1473 Banksville Rd, Pittsburgh, PA 15216, USA",1473,Banksville Road,Beechview,15216,False,1,4.5,2449,1200,2200,,,1100,2300,1100,2300,1100,2300,1100,2200,1200,2200
ChIJ9xkce932NIgRSiyVq84hrKY,Arby's,40.414676,-80.030613,"1378 Banksville Rd, Pittsburgh, PA 15216, USA",1378,Banksville Road,Banksville,15216,,1,3.9,575,1000,2200,1000,2200,1000,2200,1000,2200,1000,2200,1000,2200,1000,2200
ChIJP26l3tzzNIgRyle3s1NMfac,Chicken Latino,40.40514140000001,-80.03022349999999,"2100 Broadway Ave, Pittsburgh, PA 15216, USA",2100,Broadway Avenue,Beechview,15216,,1,4.6,668,1100,1800,,,1100,2100,1100,2100,1100,2100,1100,2100,1100,2100
ChIJUTCorzr3NIgRufBFZYqcUZU,Las Palmas Tacos,40.4099196,-80.0248877,"1616 Broadway Ave, Pittsburgh, PA 15216, USA",1616,Broadway Avenue,Beechview,15216,,,4.5,102,1100,2100,1100,2100,1100,2100,1100,2100,1100,2100,1100,2100,1100,2100
ChIJV5T8ZFj3NIgRwPq8B4iUjYQ,Namaste India,40.4192308,-80.0303476,"1150 Banksville Rd, Pittsburgh, PA 15216, USA",1150,Banksville Road,Banksville,15216,,,,,,,,,,,,,,,,,,
ChIJ4122GCj3NIgR4EygOp9VQyw,Fiori's Pizzaria,40.40517880000001,-80.0185903,"103 Capital Ave, Pittsburgh, PA 15226, USA",103,Capital Avenue,Brookline,15226,False,1,4.7,3042,1100,0100,1100,0100,1100,0100,1100,0100,1100,0100,1100,0100,1100,0100
ChIJ9R6o7hz3NIgRoXHX6b9F_yI,Kabab and Curry Restaurant - Indian and Pakistani Cuisine,40.404046,-80.0405052,"2890 Banksville Rd, Pittsburgh, PA 15216, USA",2890,Banksville Road,Banksville,15216,,2,4.7,1998,1600,2130,1600,2130,,,1600,2130,1600,2130,1600,2130,1600,2130
ChIJscaPKe_xNIgR2QpQkr3O8h8,Terrene,40.4337618,-80.00457709999999,"224 W Station Square Dr, Pittsburgh, PA 15219, USA",224,West Station Square Drive,South Shore,15219,False,,4.4,102,,,0900,1900,0900,1900,0900,1900,0900,1900,0900,1900,0930,1530
ChIJt1-O1Tr3NIgRuWJRAaD-mmc,Moonlite Cafe,40.3955514,-80.02280499999999,"530 Brookline Blvd, Pittsburgh, PA 15226, USA",530,Brookline Boulevard,Brookline,15226,False,1,4.6,416,1100,0200,1100,0200,1100,0200,1100,0200,1100,0200,1100,0200,1100,0200
ChIJXTWUdlX3NIgRLsxLV-6novE,Alquisiras Paleteria,40.40522180000001,-80.0301753,"2056 Broadway Ave, Pittsburgh, PA 15216, USA",2056,Broadway Avenue,Beechview,15216,True,,4.5,168,1100,2200,1100,2200,1100,2200,1100,2200,1100,2200,1100,2200,1100,2200
ChIJv-X66E3xNIgR4rFcM-iZBxQ,The Melting Pot,40.43423599999999,-80.00556929999999,"242 W Station Square Dr, Pittsburgh, PA 15219, USA",242,West Station Square Drive,South Shore,15219,True,3,4.5,1571,1200,2200,1600,2200,1600,2200,1600,2200,1600,2200,1200,2300,1200,2300
ChIJsb73t8v3NIgRXRpXRGzmj0U,Pabellón Venezuelan & Mexican Cuisine,40.40216030000001,-80.0414231,"2957 Banksville Rd, Pittsburgh, PA 15216, USA",2957,Banksville Road,Banksville,15216,True,1,4.6,369,1130,2000,1130,2000,1130,2000,,,1130,2000,1130,2100,1130,2100
ChIJq8aTMiD3NIgRhl34BM3M62I,Slice on Broadway-Beechview,40.4041525,-80.0304689,"2128 Broadway Ave, Pittsburgh, PA 15216, USA",2128,Broadway Avenue,Beechview,15216,,1,4.3,501,1200,2000,,,1100,2100,1100,2100,1100,2100,1100,2200,1100,2200
ChIJnxGpywT3NIgR8_qyfVf3EM4,Mintt Indian Cuisine,40.40106300000001,-80.0425186,"3033 Banksville Rd, Pittsburgh, PA 15216, USA",3033,Banksville Road,Banksville,15216,True,2,3.9,1002,1700,2130,,,1700,2130,1700,2130,1700,2130,1700,2130,1700,2130
ChIJsf3U_i7xNIgRxQxY564cOZI,Creative Coffee & Supply,40.43851699999999,-79.9999069,"309 Smithfield St, Pittsburgh, PA 15222, USA",309,Smithfield Street,Downtown,15222,,,4.6,72,0900,1700,0800,1700,0800,1700,0800,1700,0800,1700,0800,1700,0900,1700
ChIJRVKiym7xNIgRPlAkUzhu6q4,Delanie's Coffee,40.4289847,-79.9807539,"1737 E Carson St, Pittsburgh, PA 15203, USA",1737,East Carson Street,South Side Flats,15203,False,1,4.6,513,0800,1800,0700,1900,0700,1900,0700,1900,0700,1900,0700,1900,0700,1900
ChIJfQnDg-LzNIgRW_Yv4dBCzIc,Divvy Coffee & Buns,40.4413173,-79.95697109999999,"3714 Forbes Ave, Pittsburgh, PA 15213, USA",3714,Forbes Avenue,Central Oakland,15213,False,,4.5,106,0800,1800,0700,1800,0700,1800,0700,1800,0700,1800,0700,1800,0800,1800
ChIJeSJPCur3NIgRG2JwDtlfD3s,Chip and Kale,40.4053621,-80.0301139,"2102 Broadway Ave, Pittsburgh, PA 15216, USA",2102,Broadway Avenue,Beechview,15216,,,5,7,,,,,0900,1700,0900,1700,0900,1700,,,,
ChIJAUeyl8f3NIgRTwaDXz1HcGs,Oak Hill Post,40.39524689999999,-80.02243469999999,"600 Brookline Blvd, Pittsburgh, PA 15226, USA",600,Brookline Boulevard,Brookline,15226,True,,4.9,222,0900,1500,,,0900,1500,0900,1500,0900,1500,0900,1500,0900,1500
ChIJPVFI4jD3NIgR5Jo9EvY00m8,Jolina's Mediterranean Cuisine,40.392127,-80.017296,"1011 Brookline Blvd, Pittsburgh, PA 15226, USA",1011,Brookline Boulevard,Brookline,15226,,2,4.7,202,,,1100,2030,1100,2030,1100,2030,1100,2030,1100,2130,1100,2130
ChIJ1Vd4DgX3NIgRFCXOWfWXvOw,Coach's Bottleshop & Grille,40.4002855,-80.0430121,"3105 Banksville Rd, Pittsburgh, PA 15216, USA",3105,Banksville Road,Banksville,15216,True,2,4.4,471,1100,0000,1130,0000,1130,0000,1130,0000,1130,0000,1130,0200,1100,0200
ChIJ7UXxRAP0NIgRnHHdP7MB1zY,Wendy's,40.4502649,-80.01888199999999,"725 Allegheny Ave, Pittsburgh, PA 15233, USA",725,Allegheny Avenue,Chateau,15233,False,1,3,1585,0700,0100,0700,0100,0700,0100,0700,0100,0700,0100,0700,0100,0700,0100
ChIJ59EdawP0NIgRRbOjAheTl7U,Taco Bell,40.4498098,-80.01870559999999,"705 Allegheny Ave, Pittsburgh, PA 15233, USA",705,Allegheny Avenue,Chateau,15233,,1,3.3,1843,1000,2300,1000,2300,1000,2300,1000,2300,1000,2300,1000,2300,1000,2300
ChIJ0wO9t0b0NIgR1aZ3xP_Knco,Don's Diner,40.4716367,-80.0373157,"1729 Eckert St, Pittsburgh, PA 15212, USA",1729,Eckert Street,Marshall-Shadeland,15212,,1,4.6,267,,,,,0630,1300,0630,1300,0630,1300,0630,1300,0630,1200
ChIJb6K0JAT0NIgRDyAPYKZrgVw,Allegheny Sandwich Shoppe,40.452474,-80.015119,"822 Western Ave, Pittsburgh, PA 15233, USA",822,Western Avenue,Allegheny-West,15233,,1,4.7,350,,,,,0730,1430,0730,1430,0730,1430,0730,1430,0730,1330
ChIJk17kWQL0NIgRMkFV0rbi3l0,Hickory Bridge BBQ Co,40.447642,-80.016862,"100 Art Rooney Ave, Pittsburgh, PA 15212, USA",100,Art Rooney Avenue,North Shore,15212,,,,,,,,,,,,,,,,,,
ChIJM_ImXwP0NIgRgEEMEoJeE9c,McDonald's,40.45083959999999,-80.0189925,"801 Allegheny Ave, Pittsburgh, PA 15233, USA",801,Allegheny Avenue,Chateau,15233,True,1,2.9,1630,0000,,,,,,,,,,,,,
ChIJBRq4_cX1NIgR_V4__5IL_-Q,Tony's Pub,40.4520412,-80.01676789999999,"900 Western Ave, Pittsburgh, PA 15233, USA",900,Western Avenue,Allegheny-West,15233,False,,5,2,1030,2100,,,,,1130,2200,1130,2200,1130,2300,1030,2300
ChIJ2_KpOwL0NIgRlwzYNY03vzI,Goal Line,40.4473161,-80.0152173,"100 Art Rooney Ave, Pittsburgh, PA 15212, USA",100,Art Rooney Avenue,North Shore,15212,,,3,2,1100,2300,1100,2300,1100,2300,1100,2300,1100,2300,1100,2300,1100,2300
ChIJezxPEXzzNIgRRVigvGgRNHQ,North Shore Tavern,40.44822019999999,-80.0039053,"120 Federal St, Pittsburgh, PA 15212, USA",120,Federal Street,North Shore,15212,,,4.4,370,1100,0000,1100,0000,1100,0000,1100,0000,1100,0000,1100,0030,1100,0030
ChIJI2q7FAL0NIgRUoBKaGaPw3A,Quaker Steak & Lube,40.4467648,-80.0157603,"100 Art Rooney Avenue Sec. 109 & Sec. 136 Stadium, Great Hall Area, Pittsburgh, PA 15212, USA",,,North Shore,15212,True,2,3.5,25,0000,,,,,,,,,,,,,
ChIJg888LAD0NIgRv6CEQUat1uc,The Foundry | Table & Tap,40.445705,-80.01126699999999,"381 N Shore Dr, Pittsburgh, PA 15212, USA",381,North Shore Drive,North Shore,15212,True,2,4.2,698,1100,2200,,,1600,2100,1600,2100,1600,2100,1600,2200,1100,2200
ChIJkzZRclbxNIgRVOheuNrywO8,Cafe Milano,40.4431334,-80.0025034,"134 6th St, Pittsburgh, PA 15222, USA",134,6th Street,Downtown,15222,,1,4.3,617,1000,0100,1000,0100,1000,0100,1000,0100,1000,0100,1000,0100,1000,0100
ChIJHaLGRefzNIgRf_UaVEuRZtE,Gaucho Parrilla Argentina,40.44278239999999,-80.0025062,"146 6th St, Pittsburgh, PA 15222, USA",146,6th Street,Downtown,15222,,2,4.6,3418,,,,,1600,2200,1600,2200,1600,2200,1600,2200,1600,2200
ChIJK5NZfKLzNIgR6G1JvYJpRLw,40 North at Alphabet City,40.4555452,-80.0074976,"40 W North Ave, Pittsburgh, PA 15212, USA",40,West North Avenue,Central Northside,15212,,,4.7,67,1700,2100,,,,,1630,2100,1630,2100,1630,2200,1630,2200
ChIJU-E_KhvzNIgRfi53Eoj79i8,Fig & Ash,40.4537583,-80.0001581,"514 E Ohio St, Pittsburgh, PA 15212, USA",514,East Ohio Street,East Allegheny,15212,False,,4.8,465,,,,,1700,2200,1700,2200,1700,2200,1700,2300,1700,2300
ChIJ4ws4DVbxNIgRfdiGwIuzWB4,Alihan's Mediterranean Cuisine,40.4432423,-80.0025689,"124 6th St, Pittsburgh, PA 15222, USA",124,6th Street,Downtown,15222,,2,4.3,688,1130,2200,1200,2100,,,1200,2100,1200,2100,1200,2300,1130,2300
ChIJ90_BBVbxNIgRMNH1vKBRHmc,Christos Mediterranean Grille,40.4431832,-80.0025009,"130 6th St, Pittsburgh, PA 15222, USA",130,6th Street,Downtown,15222,True,2,4.4,400,1100,2100,1100,2100,1100,2200,1100,2200,1100,2200,1100,2300,1100,2300
ChIJeXU5zVnxNIgR3UQGKB03IE8,Talia,40.4412945,-79.9968367,"425 Sixth Ave, Pittsburgh, PA 15219, USA",425,Sixth Avenue,Downtown,15219,True,3,4.4,274,,,,,1700,2100,1700,2100,1700,2100,1700,2200,1700,2200
ChIJ4SPCK1HxNIgR1cH9Pmy4gFI,Ephesus Pizza,40.4399863,-80.002326,"219 Fourth Ave, Pittsburgh, PA 15222, USA",219,Fourth Avenue,Downtown,15222,,1,4.2,438,,,1000,2100,1000,2100,1000,2100,1000,2100,1000,2100,1000,2100
ChIJReLa5-_zNIgRj2_pLh7ZKpQ,Verdetto's | Bar & Restaurant,40.45527779999999,-79.99694439999999,"814 Madison Ave, Pittsburgh, PA 15212, USA",814,Madison Avenue,East Allegheny,15212,False,1,4.2,180,1100,0200,1200,0200,1200,0200,1200,0200,1200,0200,1200,0200,1100,0200
ChIJsy6SvvfzNIgRTl_IG4-Rel8,Hook Fish and Chicken,40.45642050000001,-80.0071042,"1221 Federal St, Pittsburgh, PA 15212, USA",1221,Federal Street,Central Northside,15212,,1,4.1,479,1100,2300,1100,2300,1100,2300,1100,2300,1100,2300,1100,2300,1100,2300
ChIJxw4q8gP0NIgRe9Z24doswug,Starbucks,40.449994,-80.0155217,"808 Ridge Ave, Pittsburgh, PA 15212, USA",808,Ridge Avenue,Allegheny-West,15212,False,2,3.8,64,0800,1300,0700,1700,0700,1700,0700,1700,0700,1700,0700,1700,0800,1300
ChIJt1OJZVbxNIgRby17EsOaQl8,Starbucks,40.44249369999999,-80.00227629999999,"202 6th St, Pittsburgh, PA 15222, USA",202,6th Street,Downtown,15222,,2,4.3,527,0530,1930,0500,1930,0500,1930,0500,1930,0500,1930,0500,1930,0530,1930
ChIJ9y_Onk3yNIgRg1Zzijr0ge4,Geppetto Cafe,40.47008049999999,-79.9609069,"4121 Butler St, Pittsburgh, PA 15201, USA",4121,Butler Street,Central Lawrenceville,15201,True,2,4.7,887,0900,1600,0900,1500,0900,1500,0900,1500,0900,1500,0900,1500,0900,1600
ChIJQaqAlUzxNIgRhBrec58hGCM,Grand Brew,40.4310128,-80.007306,"122 Shiloh St, Pittsburgh, PA 15211, USA",122,Shiloh Street,Mount Washington,15211,,1,3.9,212,0700,1900,0700,1900,0700,1900,0700,1900,0700,1900,0700,1900,0700,1900
ChIJYT9vcx30NIgRcIAOt5Q9ngM,Ciao,40.4474198,-80.0223528,"777 Casino Dr, Pittsburgh, PA 15212, USA",777,Casino Drive,Chateau,15212,,,2.6,5,0000,,,,,,,,,,,,,
ChIJYwQ1VljxNIgRQTy1kUgaT0E,Starbucks,40.441304,-79.995076,"600 Grant St, Pittsburgh, PA 15219, USA",600,Grant Street,Downtown,15219,False,2,4.2,53,,,0530,1630,0530,1630,0530,1630,0530,1630,0530,1630,,
ChIJN04B10nxNIgRJp6B4Afp9iI,Treats n Beans,40.4406696,-79.9587107,"118 Meyran Ave, Pittsburgh, PA 15213, USA",118,Meyran Avenue,West Oakland,15213,,1,4.5,185,1100,2300,1100,2300,1100,2300,1100,2300,1100,2300,1100,2300,1100,2300
ChIJ2YbrXVjxNIgRhCOLgZcNS4k,Au Bon Pain,40.44127080000001,-79.9950191,"600 Grant St, Pittsburgh, PA 15219, USA",600,Grant Street,Downtown,15219,,2,3.3,27,,,0700,1400,0700,1400,0700,1400,0700,1400,0700,1400,,
ChIJS5rmxDr3NIgRUf_lWo0F_AU,Pitaland,40.3948565,-80.0221186,"620 Brookline Blvd, Pittsburgh, PA 15226, USA",620,Brookline Boulevard,Brookline,15226,,1,4.8,1207,1000,1600,0800,1900,0800,1900,0800,1900,0800,1900,0800,1900,0800,1900
ChIJv_rbhDr3NIgRUBkvX7v9iiY,Antonio's Pizzeria,40.3936385,-80.0201379,"758 Brookline Blvd, Pittsburgh, PA 15226, USA",758,Brookline Boulevard,Brookline,15226,False,1,4.4,192,1200,2200,1100,2200,1100,2200,1100,2200,1100,2200,1100,2300,1100,2300
ChIJr4Wg9TD3NIgR8jYspDUxnz8,Hank's Hotdogs Too,40.39278989999999,-80.0184546,"919 Brookline Blvd, Pittsburgh, PA 15226, USA",919,Brookline Boulevard,Brookline,15226,,1,4.4,114,,,1000,1500,1000,1500,1000,1500,1000,1500,1000,1500,1000,1500
ChIJn-G15zD3NIgRr6pChHoTvvg,Tong Garden,40.3918357,-80.0176506,"956 Brookline Blvd, Pittsburgh, PA 15226, USA",956,Brookline Boulevard,Brookline,15226,,1,4.2,109,,,1200,2030,1200,2030,1200,2030,1200,2030,1200,2030,1200,2030
ChIJQ9yvbpX3NIgRc042Rjs7NTk,Marisquería Insomnia,40.3932952,-80.0198669,"810 Brookline Blvd, Pittsburgh, PA 15226, USA",810,Brookline Boulevard,Brookline,15226,,,2.8,13,1100,2200,1100,2200,1100,2200,1100,2200,1100,2200,1100,2200,1100,2200
ChIJA05yFiD3NIgRgQjy44EeirI,Big Shot Bob's House of Wings - Beechview,40.3979392,-80.02619059999999,"109 Brookline Blvd, Pittsburgh, PA 15226, USA",109,Brookline Boulevard,Brookline,15226,,2,4.3,279,1200,2100,1100,2200,1100,2200,1100,2200,1100,2200,1100,2300,1100,2300
ChIJuXiLVh_3NIgR1gEbGJ7L4Ps,Los Inmortales Fondita Con Sabor Latino!,40.4020113,-80.0314202,"2318 Broadway Ave, Pittsburgh, PA 15216, USA",2318,Broadway Avenue,Beechview,15216,,,5,1,,,,,,,,,,,,,,
ChIJzSivPST3NIgRi2_ge7NCRnM,Wendy's,40.4002491,-80.0241029,"2410 W Liberty Ave, Pittsburgh, PA 15226, USA",2410,West Liberty Avenue,Beechview,15226,False,1,3.2,1235,0630,0200,0630,0200,0630,0200,0630,0200,0630,0200,0630,0200,0630,0200
ChIJM0mc_tX3NIgRt5RrS_GeFIY,The Kickstand Sandwich Shop,40.3922298,-80.0181896,"936 Brookline Blvd, Pittsburgh, PA 15226, USA",936,Brookline Boulevard,Brookline,15226,,2,4.3,114,,,1100,1800,1100,1800,1100,2000,1100,2000,1100,2200,1100,2200
ChIJXYG7tf73NIgRy-hEEhs2izg,Vinny's Pizza,40.3952361,-80.02242380000001,"618 Brookline Blvd Apartment 2, Pittsburgh, PA 15226, USA",618,Brookline Boulevard,Brookline,15226,True,2,3.2,67,1000,2300,1000,2300,1000,2300,1000,2300,1000,2300,1000,0100,1000,0100
ChIJofC1eTD3NIgRdfPYN3H9CxI,Insomnia Discotec,40.3933869,-80.0197731,"810 Brookline Blvd, Pittsburgh, PA 15226, USA",810,Brookline Boulevard,Brookline,15226,True,,3.9,163,,,1100,2100,1100,2100,1100,2100,1100,2100,1100,2200,1100,2200
ChIJD-2ViDD3NIgRYov1UwTv3rg,Fox's Pizza Den of Brookline,40.392821,-80.019119,"902 Brookline Blvd, Pittsburgh, PA 15226, USA",902,Brookline Boulevard,Brookline,15226,,1,4.5,168,1200,2000,1500,2100,1500,2100,1500,2100,1500,2100,1100,2100,1100,2100
ChIJ3ejbFb_zNIgRbaGSDkFD6Jw,Scratch & Co.,40.4643519,-79.98229889999999,"1720 Lowrie St, Pittsburgh, PA 15212, USA",1720,Lowrie Street,Troy Hill,15212,True,2,4.6,439,0900,2100,0700,2100,0700,2100,0700,2100,0700,2100,0700,2100,0900,2100
ChIJQXXnMXXzNIgRfNk6_IE9l7g,De Fer Coffee & Tea @ Troy Hill,40.46674989999999,-79.9823218,"1800 Rialto St, Pittsburgh, PA 15212, USA",1800,Rialto Street,Troy Hill,15212,,,4.7,15,0800,1500,,,0800,1500,0800,1500,0800,1500,0800,1500,0800,1500
ChIJ81YsC1LyNIgRRnRiwcOybnk,Kickback Pinball Cafe,40.4712336,-79.9597546,"4326 Butler St, Pittsburgh, PA 15201, USA",4326,Butler Street,Central Lawrenceville,15201,False,1,4.6,349,1000,1900,,,1000,2300,1000,2300,1000,2300,1000,2300,1000,2300
ChIJm-4CqZzzNIgR7EX7MH7PMTg,The Nook,40.4672205,-79.9641709,"3811 Butler St, Pittsburgh, PA 15201, USA",3811,Butler Street,Lower Lawrenceville,15201,True,2,4.5,104,0900,1500,0800,1500,0800,1500,0800,1500,0800,1500,0800,1500,0900,1500
ChIJ41sM7mjzNIgRgxftFyYQwM0,Adda Coffee & Tea — Garfield (Bazaar),40.4653704,-79.9449679,"4905 Penn Ave, Pittsburgh, PA 15224, USA",4905,Penn Avenue,Garfield,15224,True,,4.7,40,0800,1500,0800,1500,0800,1500,0800,1500,0800,1500,0800,1500,0800,1500
ChIJnUb3DUzzNIgRZorWWibf-lI,Arriviste Coffee Bar @ Pane è Pronto,40.45553609999999,-79.9779523,"2627 Penn Ave, Pittsburgh, PA 15222, USA",2627,Penn Avenue,Strip District,15222,False,,,,,,,,0800,1800,0800,1800,0800,1800,0800,1800,0800,1800
ChIJw5DqBxHyNIgRFODaRgikWLg,Cafe Moulin,40.451686,-79.9332924,"732 Filbert St, Pittsburgh, PA 15232, USA",732,Filbert Street,Shadyside,15232,True,2,4.6,1068,0800,1600,0800,1600,0800,1600,0800,1600,0800,1600,0800,1600,0800,1600
ChIJ-6roCurzNIgRjTcSLTAsu9Y,Tammys Place,40.4595872,-79.98630419999999,"1354 Goettmann St, Pittsburgh, PA 15212, USA",1354,Goettmann Street,Troy Hill,15212,False,1,4.5,204,0800,0200,0800,0200,0800,0200,0800,0200,0800,0200,0800,0200,0800,0200
ChIJx_dVIsHzNIgRVOx-Y_MMsvQ,EYV Restaurant,40.4536202,-80.0008352,"424 E Ohio St, Pittsburgh, PA 15212, USA",424,East Ohio Street,East Allegheny,15212,True,,,,,,,,,,,,,,,,,
ChIJyYvQIvzzNIgRxWHi73BFA8U,Carmi Express,40.4564123,-80.0071013,"1219 Federal St, Pittsburgh, PA 15212, USA",1219,Federal Street,Central Northside,15212,,,3.3,27,,,,,1100,1900,1100,1900,1100,1900,1100,1900,1100,1900
ChIJWc78NOLzNIgRcQKCaa4pSCU,Eleven,40.44606519999999,-79.993172,"1150 Smallman St, Pittsburgh, PA 15222, USA",1150,Smallman Street,Strip District,15222,,4,4.6,1264,1100,1500,,,1700,2200,1700,2200,1700,2200,1700,2300,1700,2300
ChIJpc-qDFjxNIgRSxroybLDy4s,Bae Bae's Kitchen,40.44366720000001,-79.9962166,"951 Liberty Ave, Pittsburgh, PA 15222, USA",951,Liberty Avenue,Downtown,15222,,2,4.7,745,1200,2000,1500,2000,1500,2000,1500,2000,1200,2000,1200,2200,1200,2200
ChIJZddMBN3zNIgRJiPR3CQJf-w,Bella Notte,40.4509529,-79.9839348,"1914 Penn Ave, Pittsburgh, PA 15222, USA",1914,Penn Avenue,Strip District,15222,True,1,4.4,1137,1100,1700,1100,1900,1100,1900,1100,1900,1100,1900,1100,2100,1100,2100
ChIJ1QoHqfrzNIgRXO5PEaJO_vs,China Taste Restaurant,40.45411199999999,-79.998119,"630 E Ohio St, Pittsburgh, PA 15212, USA",630,East Ohio Street,East Allegheny,15212,,1,4.1,261,1200,2100,,,1100,2100,1100,2100,1100,2100,1100,2200,1100,2200
ChIJQcMWoeLzNIgRHz4LnivIm98,August Henry's Burger Bar,40.4440156,-79.99630280000001,"946 Penn Ave, Pittsburgh, PA 15222, USA",946,Penn Avenue,Downtown,15222,,2,4.2,709,,,,,,,1200,2100,1200,2100,1200,2200,1200,2200
ChIJA8jyCVjxNIgRaTBDzIS-Fvg,Bakersfield,40.4440518,-79.996629,"940 Penn Ave, Pittsburgh, PA 15222, USA",940,Penn Avenue,Downtown,15222,,2,4.5,1595,1100,2200,1600,2300,1600,2300,1600,2300,1600,2300,1100,0000,1100,0000
ChIJrwpSeeLzNIgRbnjwmHTf43k,Bill's Bar & Burger,40.4440451,-79.9942672,"1001 Liberty Ave, Pittsburgh, PA 15222, USA",1001,Liberty Avenue,Downtown,15222,True,2,4,748,1100,2300,1100,2300,1100,2300,1100,2300,1100,2300,1100,0000,1100,0000
ChIJaxLB3NzzNIgRc7BqXp2MCR4,Cafe Raymond,40.4513816,-79.98375850000001,"2009 Penn Ave, Pittsburgh, PA 15222, USA",2009,Penn Avenue,Strip District,15222,,2,4.5,1046,0830,1500,,,,,,,0900,1500,0900,1500,0830,1500
ChIJMUZha1nzNIgRuii2YvwHVEE,Iron Born Pizza & Pasta,40.4511426,-79.9852132,"1806 Smallman St, Pittsburgh, PA 15222, USA",1806,Smallman Street,Strip District,15222,True,,4.6,433,1100,2030,,,,,1100,2030,1100,2030,1100,2030,1100,2030
ChIJddZ3-lTxNIgRh9LKI1XZ1kY,3 Rivers | Restaurant and Lounge,40.441727,-80.00645,"600 Commonwealth Pl, Pittsburgh, PA 15222, USA",600,Commonwealth Place,Downtown,15222,,,3.8,52,,,,,,,,,,,,,,
ChIJa7HnU_7zNIgRWgV7Uen_R4M,Levy Restaurants,40.4475024,-80.0058043,"115 Federal St, Pittsburgh, PA 15212, USA",115,Federal Street,North Shore,15212,,,3.8,6,,,,,,,,,,,,,,
ChIJvfMuIwD0NIgR_OKU1NP3Exw,Bar Louie - North Shore,40.4463639,-80.0106043,"330 N Shore Dr Building 1B, Pittsburgh, PA 15212, USA",330,North Shore Drive,North Shore,15212,True,2,4.2,1349,1000,0200,1100,0200,1100,0200,1100,0200,1100,0200,1100,0200,1000,0200
ChIJw7NZi__zNIgRwcp5kxJAErk,Hyde Park Prime Steakhouse,40.446287,-80.00831699999999,"247 N Shore Dr, Pittsburgh, PA 15212, USA",247,North Shore Drive,North Shore,15212,True,4,4.6,639,,,1630,2100,1630,2100,1630,2100,1630,2100,1630,2200,1600,2200
ChIJRQEFlf7zNIgRZxLBLf1DxmA,SoHo,40.448376,-80.004509,"203 Federal St, Pittsburgh, PA 15212, USA",203,Federal Street,North Shore,15212,False,2,4.1,674,1100,2300,1100,2300,1100,2300,1100,2300,1100,2300,1100,0000,1100,0000
ChIJWWjFalTxNIgRZEwdzBj_toI,Eddie Merlot's,40.4408817,-80.0047079,"444 Liberty Ave, Pittsburgh, PA 15222, USA",444,Liberty Avenue,Downtown,15222,False,4,4.6,1015,1700,2000,1100,2100,1100,2100,1100,2100,1100,2100,1700,2200,1700,2200
ChIJc7hNuRj1NIgRDSy7LYfY3bI,Macs & Stacks - North Shore,40.44626469999999,-80.01063549999999,"330 N Shore Dr, Pittsburgh, PA 15212, USA",330,North Shore Drive,North Shore,15212,,,2.2,13,1100,0200,1100,0200,1100,0200,1100,0200,1100,0200,1100,0200,1100,0200
ChIJrd_MPQD0NIgRaQcAurQ7VPk,Tequila Cowboy,40.4460747,-80.0115356,"380 N Shore Dr, Pittsburgh, PA 15212, USA",380,North Shore Drive,North Shore,15212,False,2,4,2361,1100,0000,1600,0000,1600,0000,1600,0000,1600,0000,1600,0200,1100,0200
ChIJp1tqyuvxNIgROzXlw3OKjeA,Mad chicken,40.4419899,-80.00256159999999,"535 Liberty Ave, Pittsburgh, PA 15222, USA",535,Liberty Avenue,Downtown,15222,True,,4.8,55,1200,2000,1100,0200,1100,0200,1100,0200,1100,0200,1100,0300,1100,0300
ChIJSe13JrnxNIgRyRAtLq7DTp0,Sly Fox Taphouse at the Point,40.4406999,-80.0061463,"300 Liberty Ave Suite 100, Pittsburgh, PA 15222, USA",300,Liberty Avenue,Downtown,15222,True,1,4.5,152,1130,2000,1130,2000,1130,2000,1130,2000,1130,2000,1130,2200,1130,2200
ChIJa_ZAqf_zNIgRKc3voIHKeuM,Primanti Bros.,40.4470711,-80.00436719999999,"115 Federal St, Pittsburgh, PA 15212, USA",115,Federal Street,North Shore,15212,,1,4.1,7,,,,,,,,,,,,,,
ChIJ__6MLQD0NIgR7tpx9fGzBjQ,Little Red Corvette 80s and 90s Kitchen & Bar,40.4461058,-80.0113612,"380 N Shore Dr #2, Pittsburgh, PA 15212, USA",380,North Shore Drive,North Shore,15212,False,,3.9,54,1100,0000,1100,0000,1100,0000,1100,0000,1100,0000,1100,0000,1100,0000
ChIJDQkHmlPxNIgR-RYTgv_3ExM,Buon Giorno Cafe,40.4385389,-80.0050284,"20 Stanwix St #1, Pittsburgh, PA 15222, USA",20,Stanwix Street,Downtown,15222,,1,4.5,31,,,0700,1400,0700,1400,0700,1400,0700,1400,0700,1400,,
ChIJLRZdz1bxNIgRliKBNNMrj_E,Revel,40.4403315,-80.00177889999999,"Level, 242 Forbes Ave, Pittsburgh, PA 15222, USA",242,Forbes Avenue,Downtown,15222,True,2,4.1,751,1000,2200,0700,2200,0700,2200,0700,2200,0700,2200,0700,0000,0700,0000
ChIJJZ51f1bxNIgRI-T-G9szLw8,Noodles and Company,40.44089650000001,-80.0017402,"476 McMasters Way, Pittsburgh, PA 15222, USA",476,McMasters Way,Downtown,15222,False,1,4.2,592,1100,2100,1100,2100,1100,2100,1100,2100,1100,2100,1100,2100,1100,2100
ChIJMZ8fmvfzNIgRqO6p4m40WIw,Nana's New York Hotdog Shop,40.455929,-80.00654589999999,"1110 Federal St, Pittsburgh, PA 15212, USA",1110,Federal Street,Central Northside,15212,,1,4.7,138,,,0830,1430,0830,1430,0830,1430,0830,1430,0830,1430,,
ChIJYWwmlFbxNIgRyjrXVFPWaOU,Las Velas,40.4409462,-80.00210480000001,"21 Market Square, Pittsburgh, PA 15222, USA",21,Market Square,Downtown,15222,False,2,4.3,1139,,,1100,2100,1100,2100,1100,2100,1100,2100,1100,2200,1100,2200
ChIJUQ8c81bxNIgRnioofxjN84M,fl.2 Modern American,40.441487,-80.001673,"510 Market St floor 2, Pittsburgh, PA 15222, USA",510,Market Street,Downtown,15222,,,4.3,366,0800,2200,1600,2200,1600,2200,1600,2200,1600,2200,1600,0000,1700,0000
ChIJD_J0PCrxNIgROmvTjJtU6kE,Adda Coffee & Tea — Downtown (Bazaar),40.4434502,-79.9997398,"725 Penn Ave, Pittsburgh, PA 15222, USA",725,Penn Avenue,Downtown,15222,False,,4.4,11,0800,1600,0800,1500,0800,1500,0800,1500,0800,1500,0800,1500,0800,1600
ChIJ8-GimDjxNIgRlApecn2qzWA,YINZ Coffee 11 Stanwix,40.4390568,-80.00610999999999,"11 Stanwix St, Pittsburgh, PA 15222, USA",11,Stanwix Street,Downtown,15222,,,5,1,,,,,,,,,,,,,,
ChIJLbPZlVbxNIgRUiWtcqhZS7k,Dunkin',40.4409657,-80.0030141,"28 Market Square, Pittsburgh, PA 15222, USA",28,Market Square,Downtown,15222,False,1,3.8,354,0800,1500,0600,1900,0600,1900,0600,1900,0600,1900,0600,1900,0700,1700
ChIJG461q1fxNIgRnD8-ZYNshCY,Erin's Deli,40.441978,-80.00012799999999,"210 Sixth Ave, Pittsburgh, PA 15222, USA",210,Sixth Avenue,Downtown,15222,,,4.7,65,,,0800,1400,0800,1400,0800,1400,0800,1400,0800,1300,,
ChIJfUvFfeLzNIgRJJG8TAOKGd8,Starbucks,40.44423630000001,-79.9941822,"1001 Liberty Ave, Pittsburgh, PA 15222, USA",1001,Liberty Avenue,Downtown,15222,False,2,3.9,233,0700,1400,0600,1600,0600,1600,0600,1600,0600,1600,0600,1600,0700,1400
ChIJnU-ekU3xNIgR8qOJqcNzFuw,Hard Rock Cafe,40.433973,-80.0049041,"230 W Station Square Dr, Pittsburgh, PA 15219, USA",230,West Station Square Drive,South Shore,15219,,2,4.2,2048,1200,2100,1200,2100,1200,2100,1200,2100,1200,2100,1200,2300,1200,2300
ChIJ62Pn2n33NIgRrYZKBe7etvk,Jules Market and Sidewalk Cafe,40.4313748,-80.0104197,"230 Virginia Ave, Mt Washington, PA 15211, USA",230,Virginia Avenue,Mount Washington,15211,True,,4.3,12,,,1100,1800,1100,1800,1100,1800,1100,1800,1100,1800,,
ChIJjcVAx03xNIgRSaYa9eOR2w4,Buca di Beppo Italian Restaurant,40.4334862,-80.00437,"3 E Station Square Dr, Pittsburgh, PA 15219, USA",3,East Station Square Drive,South Shore,15219,True,2,3.9,1156,1100,2130,1100,2130,1100,2130,1100,2130,1100,2200,1100,2300,1100,2300
ChIJ3VDw7E7xNIgRUv1mm2F058s,Joe's Crab Shack,40.4338374,-80.0045772,"226 W Station Square Dr, Pittsburgh, PA 15219, USA",226,West Station Square Drive,South Shore,15219,True,2,4.2,1511,1100,2100,1100,2100,1100,2100,1100,2100,1100,2100,1100,2200,1100,2200
ChIJ28OHmk3xNIgRqZ-UsFZhcyY,Texas de Brazil - Pittsburgh,40.4342335,-80.0052932,"240 W Station Square Dr ste d-1, Pittsburgh, PA 15219, USA",240,West Station Square Drive,South Shore,15219,,3,4.5,2292,1400,2100,1700,2100,1700,2100,1700,2100,1700,2100,1700,2130,1400,2130
ChIJ2UjFe03xNIgRXZtF7LtXxG4,Kiku Japanese Restaurant,40.433893,-80.00552449999999,"225 W Station Square Dr, Pittsburgh, PA 15219, USA",225,West Station Square Drive,South Shore,15219,True,3,4.5,439,1630,2200,,,1700,2200,1700,2200,1700,2200,1630,2200,1630,2200
ChIJPxm6vcfxNIgRojt2mErBxbY,Tupelo Honey Southern Kitchen & Bar,40.43297,-80.0039219,"111 W Station Square Dr, Pittsburgh, PA 15219, USA",111,West Station Square Drive,South Shore,15219,False,2,4.2,562,0900,2100,1100,2100,1100,2100,1100,2100,1100,2100,1100,2200,0900,2200
ChIJncbtvEzxNIgRtSOWudAmLC4,Sesame Garden,40.43059,-80.0076212,"202 Shiloh St, Pittsburgh, PA 15211, USA",202,Shiloh Street,Mount Washington,15211,,,4.1,269,1200,2100,1100,2130,1100,2130,1100,2130,1100,2130,1100,2230,1100,2230
ChIJ97bZIDvxNIgRldtplCLSAPI,Gordo's Tacos & Tequila,40.4307788,-80.0072239,"131 Shiloh St, Pittsburgh, PA 15211, USA",131,Shiloh Street,Mount Washington,15211,,1,4.4,155,1200,2200,1200,0000,1200,0000,1200,0000,1200,0000,1200,0000,1200,0000
ChIJK0Gg3U3xNIgR91MmvokkqIE,Grand Concourse,40.4334169,-80.003885,"100 W Station Square Dr, Pittsburgh, PA 15219, USA",100,West Station Square Drive,South Shore,15219,True,3,4.3,1892,0930,2000,1130,2030,1130,2030,1130,2030,1130,2030,1130,2100,1130,2100
ChIJm2qSLZTxNIgR5kVTyhhdUug,SoFresh,40.4393716,-80.0032641,"Five PPG Place, #100, Pittsburgh, PA 15222, USA",,,Downtown,15222,True,2,4.7,182,,,1030,2100,1030,2100,1030,2100,1030,2100,1030,2100,1100,1900
ChIJ-VSo4lDxNIgR5Um8EhNVwxI,Taco Town,40.43741480000001,-80.0001472,"110 Smithfield St, Pittsburgh, PA 15222, USA",110,Smithfield Street,Downtown,15222,False,1,4.4,414,,,1100,1600,1100,1600,1100,1600,1100,1600,1100,1600,,
ChIJD6AqwRbxNIgRxgnRCFCakqw,Taco's and Tequila,40.42926249999999,-80.00651909999999,"10 Virginia Ave, Pittsburgh, PA 15211, USA",10,Virginia Avenue,Mount Washington,15211,,,,,,,,,,,,,,,,,,
ChIJ2RRre0vxNIgRuxbJ4vUVihI,Coughlin's Law Kitchen and Ale House,40.4293283,-80.0066342,"10 Virginia Ave, Pittsburgh, PA 15211, USA",10,Virginia Avenue,Mount Washington,15211,True,2,4.4,866,1000,2300,1600,2300,1600,2300,1600,2300,1600,0000,1600,0100,1000,0100
ChIJlSvOwErxNIgR5OhwkzwKGwk,Hot Rod Cafe,40.4261689,-80.0077001,"205 Boggs Ave, Pittsburgh, PA 15211, USA",205,Boggs Avenue,Mount Washington,15211,False,,4.3,26,1200,0200,1100,0200,1100,0200,1100,0200,1100,0200,1100,0200,1200,0200
ChIJPy82mmztNIgR7tCHRZTuVnc,Joe Cestone's Pizzeria,40.4307746,-80.0095979,"200 Virginia Ave, Pittsburgh, PA 15211, USA",200,Virginia Avenue,Mount Washington,15211,,1,4.6,329,1200,2100,1100,2100,1100,2100,1100,2100,1100,2100,1100,2100,1200,2100
ChIJE59EiL_xNIgRXf3_akS30ws,Slider Vibes,40.4412157,-80.0028095,"22 Market Square, Pittsburgh, PA 15222, USA",22,Market Square,Downtown,15222,True,,4.3,144,1100,2200,1100,2200,1100,2200,1100,2200,1100,2200,1100,0100,1100,0100
ChIJfc_Zu1bxNIgROLsTbfhJid0,Pizzaiolo Primo,40.44029159999999,-80.00214849999999,"8 Market Square, Pittsburgh, PA 15222, USA",8,Market Square,Downtown,15222,True,3,4.3,659,1100,2100,1100,2200,1100,2200,1100,2200,1100,2200,1100,2300,1100,2300
ChIJsZZF2lbxNIgRpdJqZpHqous,Hello Bistro,40.4400451,-80.0010302,"292 Forbes Ave, Pittsburgh, PA 15222, USA",292,Forbes Avenue,Downtown,15222,False,2,4,556,,,1030,1800,1030,1800,1030,1800,1030,1800,1030,1800,,
ChIJSwaAUkrxNIgROMtq9x4yXuI,Fox's Pizza Den,40.42692660000001,-80.0053046,"6 Bailey Ave, Pittsburgh, PA 15211, USA",6,Bailey Avenue,Mount Washington,15211,,1,4,171,1100,2130,1100,2130,1100,2130,1100,2130,1100,2130,1100,2230,1100,2230
ChIJsbm8TObxNIgRwXwg-ldV4Hg,Eggs & Moore on the Mount,40.43003,-80.0072239,"221 Shiloh St, Pittsburgh, PA 15211, USA",221,Shiloh Street,Mount Washington,15211,,,4.7,6,0700,1500,0700,1500,0700,1500,0700,1500,0700,1500,0700,1500,0700,1500
ChIJCUPo71PxNIgRAtgoTa99NOA,Sanremo's Pizza & Bar,40.4382756,-80.0040685,"10 Market St, Pittsburgh, PA 15222, USA",10,Market Street,Downtown,15222,True,1,4.5,82,,,1100,1900,1100,1900,1100,1900,1100,1900,1100,1900,,
ChIJCUPo71PxNIgR0DN7_HDvu2o,Genoa Pizza & Bar,40.438928,-80.003948,"111 Market St, Pittsburgh, PA 15222, USA",111,Market Street,Downtown,15222,True,1,4.1,744,1100,0200,1000,0200,1000,0200,1000,0200,1000,0200,1000,0200,1100,0200
ChIJBbsKoFbxNIgRfZy_c4Gysew,City Works (Market Square - Pittsburgh),40.440575,-80.00325450000001,"2 PPG Place, Pittsburgh, PA 15222, USA",2,PPG Place,Downtown,15222,,2,4.2,2672,1000,0000,1100,0000,1100,0000,1100,0000,1100,0000,1100,0100,1000,0100
ChIJO1CPWlHxNIgRyejwmfRjHB4,Ruth's Chris Steak House,40.43945060000001,-80.00365699999999,"Six PPG Place, Pittsburgh, PA 15222, USA",,,Downtown,15222,,4,4.5,1023,1700,2100,1700,2100,1700,2100,1700,2100,1700,2100,1700,2200,1700,2200
ChIJsW0CpVbxNIgRtyWHiG9FaQU,Primanti Bros. Restaurant and Bar Market Square,40.4402607,-80.0026263,"2 Market Square, Pittsburgh, PA 15222, USA",2,Market Square,Downtown,15222,True,1,4.3,3561,1030,2300,1030,2300,1030,2300,1030,2300,1030,0000,1030,0100,1030,0100
ChIJUwZBnrbxNIgRwazqpmcSdnQ,The Market Exchange,40.44117299999999,-80.0030304,"24 Market Square, Pittsburgh, PA 15222, USA",24,Market Square,Downtown,15222,False,,4.3,109,1000,2200,1100,2200,1100,2200,1100,2200,1100,2200,1100,2200,1000,0000
ChIJj8FQr1bxNIgRMi2X2oGQ9pY,Five Guys,40.4401286,-80.00268179999999,"3, PPG Place, Pittsburgh, PA 15222, USA",,,Downtown,15222,False,2,4.3,984,1100,2100,1100,2100,1100,2100,1100,2100,1100,2100,1100,2100,1100,2100
ChIJXXutnFbxNIgR7UUU81s_VKg,The Yard,40.4412646,-80.0027879,"100 Fifth Ave, Pittsburgh, PA 15222, USA",100,Fifth Avenue,Downtown,15222,,2,4.3,1219,1000,2200,1100,2200,1100,2200,1100,2200,1100,2200,1100,0000,1000,0000
ChIJgW-aDwvxNIgReJCD03Fe2LI,Emerson's,40.4412024,-80.0024625,"435 Market St 2nd Floor, Pittsburgh, PA 15222, USA",435,Market Street,Downtown,15222,False,,4.1,44,,,,,,,1700,2300,1700,2300,1700,2300,1700,2300
ChIJHct_wFbxNIgRaO_h4WbplGk,Moe's Southwest Grill,40.4403928,-80.0020681,"210 Forbes Ave, Pittsburgh, PA 15222, USA",210,Forbes Avenue,Downtown,15222,,1,4.2,623,1100,2000,1100,2000,1100,2000,1100,2000,1100,2000,1100,2000,1100,2000
ChIJKYXik1bxNIgRbgJ_mtNfjoM,No. 1 Sushi Sushi,40.441144,-80.0021479,"436 Market St, Pittsburgh, PA 15222, USA",436,Market Street,Downtown,15222,False,,4.6,398,,,1100,2000,1100,2000,1100,2000,1100,2000,1100,2000,1100,1900
ChIJofJwzFbxNIgRC57bGvzRYKE,The Rebel Room,40.43959839999999,-80.0014058,"405 Wood St, Pittsburgh, PA 15222, USA",405,Wood Street,Downtown,15222,False,,4.3,32,0700,2300,0700,2300,0700,2300,0700,2300,0700,2300,0700,2300,0700,2300
ChIJN-VSlFbxNIgR40s5WO41qgw,Original Oyster House,40.44096,-80.00201,"20 Market Square, Pittsburgh, PA 15222, USA",20,Market Square,Downtown,15222,,1,3.9,656,,,,,,,1100,1900,1100,1900,1100,1900,1200,2000
ChIJlww-71bxNIgRztXdqne3Q6s,Vallozzi's Pittsburgh,40.440985,-80.0016022,"220 Fifth Ave, Pittsburgh, PA 15222, USA",220,Fifth Avenue,Downtown,15222,,2,4.3,446,,,,,1700,2100,1700,2100,1700,2100,1700,2200,1700,2200
ChIJi3bz5VrxNIgRkavQ5Zu528M,Gasoline Street Coffee Company.,40.43554779999999,-79.9954458,"643 First Avenue, Pittsburgh, PA 15219, USA",643,First Avenue,Downtown,15219,,1,4.8,265,,,0700,1400,0700,1400,0700,1400,0700,1400,0700,1400,0900,1500
ChIJ09FFvEzxNIgRcfAZqB7fJQQ,The Summit,40.4307527,-80.0075324,"200 Shiloh St, Pittsburgh, PA 15211, USA",200,Shiloh Street,Mount Washington,15211,False,2,4.7,478,1400,1900,1700,2200,1700,2200,1700,2200,1700,2200,1700,0000,1700,0000
ChIJB5KDhyP3NIgRGNuBqbSdhzA,B & J Bar & Grille,40.39903839999999,-80.0255054,"2506 W Liberty Ave, Pittsburgh, PA 15226, USA",2506,West Liberty Avenue,Beechview,15226,False,1,4.1,387,1600,0200,1600,0200,1600,0200,1600,0200,1600,0200,1600,0200,1600,0200
ChIJbxpRjNP2NIgRtmdSg1GSF3U,Subway,40.4109992,-80.0125656,"1347 W Liberty Ave, Pittsburgh, PA 15216, USA",1347,West Liberty Avenue,Brookline,15216,True,1,3.2,81,1000,1900,0900,2100,0900,2100,0900,2100,0900,2100,0900,2100,1000,2000
ChIJr52bIdfwNIgROKgSIYc0acs,Fellini,40.4000418,-80.0000931,"Pittsburgh, PA 15210, USA",,,Carrick,15210,,,,,1200,2100,1200,2100,1200,2100,1200,2100,1200,2100,1200,2100,1200,2100
ChIJ9X4UwTr3NIgRvcIUkP2SQ6Q,Las Palmas Pittsburgh #1,40.3946018,-80.02171849999999,"700 Brookline Blvd, Pittsburgh, PA 15226, USA",700,Brookline Boulevard,Brookline,15226,,,4.5,1320,0900,2100,0900,2100,0900,2100,0900,2100,0900,2100,0900,2100,0900,2100
ChIJ23afgCP3NIgR7bEKy2YjJJY,McDonald's,40.3987796,-80.026439,"2518 W Liberty Ave, Pittsburgh, PA 15226, USA",2518,West Liberty Avenue,Beechview,15226,True,1,3.1,1958,0600,2100,0600,2100,0600,2100,0600,2100,0600,2100,0600,2100,0600,2100
ChIJhxspC8bwNIgROEnnc8MsGvs,Frank & Shirley's Restaurant,40.3886372,-79.9966371,"2209 Saw Mill Run Blvd, Pittsburgh, PA 15210, USA",2209,Saw Mill Run Boulevard,Carrick,15210,,1,4.4,837,0700,1600,0530,1900,0530,1900,0530,1900,0530,1900,0530,1900,0530,1900
ChIJY4oV6DjxNIgRmaNZyV7lqY8,Alla Famiglia,40.421621,-79.993438,"804 E Warrington Ave, Pittsburgh, PA 15210, USA",804,East Warrington Avenue,Allentown,15210,,4,4.7,933,,,1630,2200,1630,2200,1630,2200,1630,2200,1630,2330,1630,2330
ChIJR1p9kFbyNIgRDZ210Bg9nvk,Stinky's Bar & Grill,40.47767199999999,-79.95772199999999,"4901 Hatfield St, Pittsburgh, PA 15201, USA",4901,Hatfield Street,Central Lawrenceville,15201,True,1,4.5,627,1200,2100,1100,0000,1100,0000,1100,0000,1100,0000,1100,0200,1200,0200
ChIJV79ZZlHyNIgRA3nFHpLybEU,Barb's Corner Kitchen,40.47450509999999,-79.95791779999999,"4711 Butler St, Pittsburgh, PA 15201, USA",4711,Butler Street,Central Lawrenceville,15201,False,1,4.2,503,0700,1400,0700,1400,0700,1400,0700,1400,0700,1400,0700,1400,0700,1400
ChIJDxKskE3yNIgRZVoDJ9pI2OE,Dijlah Restaurant and cafe,40.4701807,-79.9605352,"4130 Butler St, Pittsburgh, PA 15201, USA",4130,Butler Street,Central Lawrenceville,15201,,1,4.3,546,1330,0100,,,1630,0100,1630,0100,1630,0100,1700,0200,1330,0200
ChIJ1a5WTUbyNIgRjZqErFhIgMQ,Tessaro's American Bar & Hardwood Grill,40.4627075,-79.9507294,"4601 Liberty Ave, Pittsburgh, PA 15224, USA",4601,Liberty Avenue,Bloomfield,15224,True,2,4.5,1407,1600,2200,,,,,1600,2200,1600,2200,1600,2200,1600,2200
ChIJrYigp_fyNIgRIWG-ie1s0kI,Caffè d'Amore Coffeeshop,40.48221599999999,-79.9519928,"5308 Butler St, Pittsburgh, PA 15223, USA",5308,Butler Street,Lawrenceville,15223,,1,4.7,243,0800,1700,0800,1700,0800,1700,0800,1700,0800,1700,0800,1700,0800,1700
ChIJFWbwNU_yNIgRFCEuSZi60Es,Caffé Mona La Bistro,40.46567799999999,-79.9542656,"4200 Penn Ave, Pittsburgh, PA 15224, USA",4200,Penn Avenue,Bloomfield,15224,True,2,4.5,793,0700,1500,0700,1500,0700,1500,0700,1500,0700,1500,0700,1500,0700,1500
ChIJTQPE-rTzNIgRoMiCLq3FCBs,Poulet Bleu,40.46446109999999,-79.9662638,"3517 Butler St, Pittsburgh, PA 15201, USA",3517,Butler Street,Lower Lawrenceville,15201,,3,4.7,441,,,,,1700,2200,1700,2200,1700,2200,1700,2200,1700,2200
ChIJUWs5GN3zNIgRPZqcckSz0q4,Kaya,40.4516354,-79.9844294,"2000 Smallman St, Pittsburgh, PA 15222, USA",2000,Smallman Street,Strip District,15222,,2,4.5,1487,1100,2100,1600,2100,1600,2100,1600,2100,1600,2100,1100,2200,1100,2200
ChIJBz2zA7XzNIgRZbcBa1o8x_c,Senti Restaurant,40.4639104,-79.9666768,"3473 Butler St, Pittsburgh, PA 15201, USA",3473,Butler Street,Lower Lawrenceville,15201,True,2,4.6,347,,,,,1700,2100,1700,2100,1700,2100,1700,2200,1700,2200
ChIJ8zAcVLPzNIgRhsHbKaVgfnM,Round Corner Cantina,40.466703,-79.964259,"3720 Butler St, Pittsburgh, PA 15201, USA",3720,Butler Street,Lower Lawrenceville,15201,,2,4.3,899,1500,2200,1700,2300,1700,2300,1700,2300,1700,2300,1700,0000,1500,0000
ChIJbTN0U7PzNIgRbg-WVM1LlSU,Umami,40.4666498,-79.9642252,"202 38th St, Pittsburgh, PA 15201, USA",202,38th Street,Lower Lawrenceville,15201,False,2,4.7,795,,,,,1700,2200,1700,2200,1700,2200,1700,0000,1700,0000
ChIJdfRhi03yNIgRi_2aR5XCEWU,The Vandal,40.4708202,-79.960028,"4306 Butler St, Pittsburgh, PA 15201, USA",4306,Butler Street,Central Lawrenceville,15201,,2,4.5,362,1700,2100,,,,,1700,2100,1700,2100,1700,2200,1700,2200
ChIJOYR7bvrzNIgRU3s9yPaP8Pg,Bistro To Go,40.4532514,-80.0010574,"415 E Ohio St, Pittsburgh, PA 15212, USA",415,East Ohio Street,East Allegheny,15212,True,2,4.8,244,,,,,0800,1500,0800,1500,0800,1500,0800,1500,,
ChIJ0axKmvfzNIgRdOPqQczWrDs,Badamo’s Pizza - Northside,40.4558354,-80.00650329999999,"1106 Federal St, Pittsburgh, PA 15212, USA",1106,Federal Street,Central Northside,15212,,1,4.5,500,1500,2000,,,1100,2100,1100,2100,1100,2100,1100,2100,1100,2100
ChIJg3MvBfvzNIgRBRpa3nA5RfY,Giant Eagle Prepared Foods,40.45145809999999,-79.9996227,"318-320 Cedar Ave, Pittsburgh, PA 15212, USA",318-320,Cedar Avenue,East Allegheny,15212,True,2,4.1,47,1000,2000,1000,2000,1000,2000,1000,2000,1000,2000,1000,2000,1000,2000
ChIJ8_mSHvzzNIgRgXf7fVX2PTM,New Moon Fusion Restaurant,40.448603,-80.0029564,"58 E General Robinson St, Pittsburgh, PA 15212, USA",58,East General Robinson Street,North Shore,15212,,,,,,,,,,,,,,,,,,
ChIJ41z6CN3zNIgR_ECPHXVS9Nc,Roland's Seafood Grill,40.45070499999999,-79.98423199999999,"1904 Penn Ave, Pittsburgh, PA 15222, USA",1904,Penn Avenue,Strip District,15222,,2,4.3,2758,1100,0000,1100,0000,1100,0000,1100,0000,1100,0000,1100,0000,1100,0000
ChIJrSNnoeLzNIgRXD5Z5bgDx6U,The Bistro,40.4445159,-79.9965826,"945 Penn Ave, Pittsburgh, PA 15222, USA",945,Penn Avenue,Downtown,15222,,,2.6,7,0700,1100,0630,1030,0630,1030,0630,1030,0630,1030,0630,1030,0700,1100
ChIJv2DWlv7zNIgRTTz0tEVx4Ok,Mike's Beer Bar,40.44799400000001,-80.0039821,"110 Federal St, Pittsburgh, PA 15212, USA",110,Federal Street,North Shore,15212,False,2,4.5,923,1100,0000,1100,0000,1100,0000,1100,0000,1100,0000,1100,0030,1100,0030
ChIJs2c8p1nxNIgR86FIs2IuGqc,Bigelow Grille Kitchen & Bar,40.4405841,-79.99435749999999,"1 Bigelow Sq, Pittsburgh, PA 15219, USA",1,Bigelow Square,Downtown,15219,,2,4.1,284,1600,2200,1600,2200,1600,2200,1600,2200,1600,2200,1600,2200,1600,2200
ChIJGfCWEFfxNIgRKdud4avVJZk,The Capital Grille,40.4408452,-80.0000312,"301 Fifth Ave, Pittsburgh, PA 15222, USA",301,Fifth Avenue,Downtown,15222,False,4,4.6,1406,1600,2100,1100,2100,1100,2100,1100,2100,1100,2100,1100,2200,1600,2200
ChIJ5a71UVbxNIgR_fJVD9BCDHo,Morton's The Steakhouse,40.4423432,-80.0011153,"625 Liberty Ave Suite 180, Pittsburgh, PA 15222, USA",625,Liberty Avenue,Downtown,15222,True,4,4.5,750,1600,2100,1700,2100,1700,2100,1700,2100,1700,2100,1600,2200,1600,2200
ChIJa5piL1jxNIgRHlJLyZ0aFUY,Villa Reale | Pizzeria & Restaurant,40.44212019999999,-79.9969363,"628 Smithfield St, Pittsburgh, PA 15222, USA",628,Smithfield Street,Downtown,15222,,1,4.2,280,,,1100,1500,1100,1500,1100,1500,1100,1500,1100,1500,,
ChIJVVUVbFfxNIgR7c7mF2aGn0Q,Fogo de Chão Brazilian Steakhouse,40.4407939,-79.9985509,"525 Smithfield St, Pittsburgh, PA 15222, USA",525,Smithfield Street,Downtown,15222,True,3,4.6,2637,1100,2100,1700,2130,1700,2130,1700,2130,1700,2130,1700,2200,1100,2200
ChIJAQCw1FfxNIgR8gdJyIh-4fM,Social House 7,40.44407199999999,-80.000344,"123 7th St, Pittsburgh, PA 15222, USA",123,7th Street,Downtown,15222,False,3,4.1,878,1500,2000,,,,,1700,2300,1700,2300,1700,0200,1700,0200
ChIJm3zjGljxNIgRNMxVoo4hgQo,Mike & Tony's Gyros,40.4434212,-79.9970815,"927 Liberty Ave, Pittsburgh, PA 15222, USA",927,Liberty Avenue,Downtown,15222,False,1,4.5,474,,,1000,1630,1000,1630,1000,1630,1000,1630,1000,1630,,
ChIJdVAc-9rzNIgR3tlczynQE98,Scarpino,40.4441792,-79.9957299,"960 Penn Ave, Pittsburgh, PA 15222, USA",960,Penn Avenue,Downtown,15222,False,2,3.9,258,1100,2100,,,,,1700,2300,1700,2300,1600,0000,1100,0000
ChIJbYs7u27xNIgR9Bj9SpqyYwY,Sultan Doner Gyro,40.44320769999999,-80.00212850000001,"133 6th St, Pittsburgh, PA 15222, USA",133,6th Street,Downtown,15222,False,,4.6,119,0900,1700,0700,2100,0700,2100,0700,2100,0700,2100,0700,2100,0800,2100
ChIJZ0VnWfTxNIgRzwmWRLP4sy4,The Eagle,40.4435089,-79.9995971,"737 Penn Ave Space 2, Pittsburgh, PA 15222, USA",737,Penn Avenue,Downtown,15222,,,4.5,430,1100,2200,1600,2300,1600,2300,1600,2300,1600,2300,1100,0000,1100,0000
ChIJ47M0F1jxNIgRBCssOalS4ck,Sree's Foods,40.44341250000001,-79.9989003,"808 Penn Ave, Pittsburgh, PA 15222, USA",808,Penn Avenue,Downtown,15222,,1,4.6,184,,,1130,1430,1130,1430,1130,1430,1130,1430,1130,1430,,
ChIJSVQ4lcfxNIgRO6wvcKZLAQI,Rosewater Middle Eastern Grill ماء ورد,40.4425223,-79.9987722,"808 Liberty Ave, Pittsburgh, PA 15222, USA",808,Liberty Avenue,Downtown,15222,True,1,4.8,304,,,1130,2030,1130,2030,1130,2030,1130,2030,1130,2030,1130,2030
ChIJLe2gNljxNIgRyIt5PgU3xtk,The Commoner,40.44166269999999,-79.9962221,"620 William Penn Pl, Pittsburgh, PA 15219, USA",620,William Penn Place,Downtown,15219,True,3,4.4,1588,1700,2100,1700,2100,1700,2100,1700,2100,1700,2100,1700,2300,1700,2300
ChIJ1QL2R1bxNIgR3zR9Fz4lorg,Meat & Potatoes,40.44315030000001,-80.0011895,"649 Penn Ave, Pittsburgh, PA 15222, USA",649,Penn Avenue,Downtown,15222,,3,4.5,1817,1700,2100,,,,,1700,2200,1700,2200,1700,2200,1700,2200
ChIJue7G_FfxNIgR3YWf7Tdt2aY,Nicky's Thai Kitchen,40.4439139,-79.9982139,"903 Penn Ave, Pittsburgh, PA 15222, USA",903,Penn Avenue,Downtown,15222,,2,4.4,1780,1700,2100,1700,2200,1700,2130,1700,2130,1700,2130,1700,2200,1700,2200
ChIJoaEBy7LxNIgRW6AehuboyTg,gi-jin,40.44245459999999,-80.0021805,"208 6th St, Pittsburgh, PA 15222, USA",208,6th Street,Downtown,15222,False,,4.6,160,,,,,1700,2200,1700,2200,1700,2200,1700,2300,1700,2300
ChIJG6g-slDxNIgR2g4PV1mDO8I,Arepittas,40.43881629999999,-79.99852,"412-428 Cherry Way, Pittsburgh, PA 15219, USA",412-428,Cherry Way,Downtown,15219,True,1,4.8,472,,,1100,2000,1100,2000,1100,2000,1100,2000,1100,2000,1100,2000
ChIJMwNf-k3xNIgRKJcrlH1YVqQ,Forbes Tavern,40.439784,-80.000461,"310 Forbes Ave, Pittsburgh, PA 15222, USA",310,Forbes Avenue,Downtown,15222,False,,4.5,171,1100,2300,1100,2300,1100,2300,1100,2300,1100,2300,1100,2300,1100,2300
ChIJr_gB_1DxNIgRCr0YYUObyHE,Siam | Thai Restaurant,40.436964,-80.000187,"410 First Avenue, Pittsburgh, PA 15219, USA",410,First Avenue,Downtown,15219,,1,4.5,194,,,1100,1945,1100,1945,1100,1945,1100,1945,1100,1945,0400,1945
ChIJq6rq5FnxNIgRP_IpsWEb7ac,Freshii,40.4398026,-79.9967176,"501 Grant St, Pittsburgh, PA 15219, USA",501,Grant Street,Downtown,15219,,2,4.1,107,,,0900,1800,0900,1800,0900,1800,0900,1800,0900,1800,,
ChIJbWn2y1DxNIgR1w7n95vU5j0,Madonna's Mediterranean Cuisine,40.43903299999999,-79.9992129,"408 Smithfield St, Pittsburgh, PA 15219, USA",408,Smithfield Street,Downtown,15219,True,1,4.8,326,,,1000,1500,1000,1500,1000,1500,1000,1500,1000,1500,,
ChIJbUeFn1DxNIgRNsB4lETrxQ0,Grant Street Tavern,40.4376887,-79.9976353,"310 Grant St, Pittsburgh, PA 15219, USA",310,Grant Street,Downtown,15219,,1,4.5,55,,,1100,2300,1100,2300,1100,2300,1100,2300,1100,2300,,
ChIJ_WoVTvLxNIgRl_aBTlrZpHs,Sally Ann's,40.4429857,-80.00257169999999,"136 6th St, Pittsburgh, PA 15222, USA",136,6th Street,Downtown,15222,False,,4.8,66,0800,1500,,,,,0800,1500,0800,1500,0800,1500,0800,1500
ChIJwz1LyVbxNIgRV4OR92L-fKw,Yuzu Kitchen,40.4397051,-80.00124579999999,"409 Wood St, Pittsburgh, PA 15222, USA",409,Wood Street,Downtown,15222,,2,4.5,644,,,1100,2100,1100,2100,1100,2100,1100,2100,1100,2200,1200,2200
ChIJZ3vhFKPxNIgRSUQGsPjO7_Q,Samovar halal restaurant مطعم سماور حلال,40.436941,-80.00052289999999,"10 Smithfield St, Pittsburgh, PA 15222, USA",10,Smithfield Street,Downtown,15222,,,4.5,58,,,1130,2200,1130,2200,1130,2200,1130,2200,1130,2200,1200,2200
ChIJgVzfkprxNIgRPyQGLv0LJ78,Tuscan Cafe,40.436915,-80.0006044,"6 Smithfield St, Pittsburgh, PA 15222, USA",6,Smithfield Street,Downtown,15222,,1,3.7,11,,,0900,1400,0900,1400,0900,1400,0900,1400,0900,1400,,
ChIJr5_PwVnxNIgRW6wYCkEkfv0,Bruegger's Bagels and Jamba Juice,40.4402542,-79.9964758,"531 Grant St, Pittsburgh, PA 15219, USA",531,Grant Street,Downtown,15219,,1,3.3,407,0600,1400,0600,1400,0600,1400,0600,1400,0600,1400,0600,1400,0600,1400
ChIJ3WOGtlnxNIgRDcTKCXS0GOw,Dunkin',40.4410851,-79.9960134,"601 Grant St, Pittsburgh, PA 15219, USA",601,Grant Street,Downtown,15219,False,1,3.8,270,0800,1300,0600,1800,0600,1800,0600,1800,0600,1800,0600,1800,0700,1500
ChIJo5IOulDxNIgRCjQSyJviOTM,Bruegger's Bagels,40.4384971,-79.9984717,"429 Fourth Ave, Pittsburgh, PA 15219, USA",429,Fourth Avenue,Downtown,15219,,1,4,96,,,0600,1400,0600,1400,0600,1400,0600,1400,0600,1400,,
ChIJHeyUo-LzNIgR1FphGl0EYGo,The Standard Market & Pint House,40.44437619999999,-79.9963233,"947 Penn Ave, Pittsburgh, PA 15222, USA",947,Penn Avenue,Downtown,15222,False,2,4,249,0700,2200,0700,1400,0700,1400,0700,2300,0700,2300,0700,0200,0700,0200
ChIJaaV-6NzzNIgRronh-wKb0Kw,La Prima Espresso Company - Strip District,40.45160190000001,-79.9828215,"205 21st St, Pittsburgh, PA 15222, USA",205,21st Street,Strip District,15222,False,1,4.7,526,0700,1600,0600,1600,0600,1600,0600,1600,0600,1700,0600,1700,0600,1700
ChIJkTpzVVjxNIgRLn0Nwuexkxw,Starbucks,40.4365945,-79.99081869999999,"600 Forbes Ave, Pittsburgh, PA 15219, USA",600,Forbes Avenue,Uptown,15219,False,2,3.9,113,1000,2300,0700,2300,0700,2300,0700,2300,0700,2300,0700,2300,0700,2300
ChIJn6HNhN3zNIgRzL37A1e_8Pg,Prestogeorge Coffee & Tea,40.4501956,-79.985719,"1719 Penn Ave, Pittsburgh, PA 15222, USA",1719,Penn Avenue,Strip District,15222,True,1,4.8,344,0900,1600,0800,1600,0800,1600,0800,1600,0800,1600,0800,1600,0800,1700
ChIJMYlAHN3zNIgRSTPlPwIwyzg,Allegheny Coffee & Tea Exchange,40.4513246,-79.98382959999999,"2005 Penn Ave, Pittsburgh, PA 15222, USA",2005,Penn Avenue,Strip District,15222,,1,4.7,758,0900,1600,0900,1600,0900,1600,0900,1600,0900,1600,0900,1600,0900,1600
ChIJSZ0k9kXxNIgRgxF44U8rvBM,Gabriella's Gourmet,40.429707,-79.997613,"301 E Carson St, Pittsburgh, PA 15219, USA",301,East Carson Street,South Side Slopes,15219,,,4.6,167,0700,1400,,,0700,1400,0700,1400,0700,1400,0700,1400,0700,1400
ChIJbUeFn1DxNIgRb6LHmi3H2zE,Nicky's Grant Street,40.4374655,-79.99771319999999,"310 Grant St #100, Pittsburgh, PA 15219, USA",310,Grant Street,Downtown,15219,False,,4.4,101,,,0700,1530,0700,1500,0700,1500,0700,1500,0700,1500,,
ChIJIQEzxDjxNIgRJm65XjBjXsA,Paisano's Restaurant,40.4220008,-79.9929095,"821 E Warrington Ave, Pittsburgh, PA 15210, USA",821,East Warrington Avenue,Allentown,15210,,2,3.9,252,,,,,1600,0000,1600,0000,1600,0000,1600,0100,1600,0100
ChIJTV6FuofxNIgRnxnw7JRHYCs,Bombay 7 Spice,40.4376498,-80.000584,"111 Smithfield St, Pittsburgh, PA 15222, USA",111,Smithfield Street,Downtown,15222,,,3.5,29,,,1100,2030,1100,2030,1100,2030,1100,2030,1100,2030,1100,2030
ChIJuxAlNFHxNIgR4kI1EDAKexg,Mandarin Gourmet,40.4393504,-80.0014722,"305 Wood St, Pittsburgh, PA 15222, USA",305,Wood Street,Downtown,15222,,1,4.2,298,,,1100,2100,1100,2100,1100,2100,1100,2100,1100,2100,1130,2200
ChIJi43421bxNIgRNnTCIKWZxi8,Mamma Lucia Pizzeria,40.440363,-80.000931,"433 Wood St, Pittsburgh, PA 15222, USA",433,Wood Street,Downtown,15222,True,1,4.4,351,,,0900,1745,0900,1745,0900,1745,0900,1745,0900,1745,1000,1500
ChIJ73N-3lDxNIgRUzUPEX1E2-A,Pizza Fiesta,40.437023,-80.000463,"14 Smithfield St, Pittsburgh, PA 15222, USA",14,Smithfield Street,Downtown,15222,,2,4.3,467,1000,0000,1000,0000,1000,0000,1000,0000,1000,0000,1000,0200,1000,0200
ChIJJ1RKHFHxNIgRpVIPCvW5ZIs,Mezbaan Indian Cuisine,40.4376107,-80.0004822,"111 Smithfield St, Pittsburgh, PA 15222, USA",111,Smithfield Street,Downtown,15222,,1,3.8,195,,,1130,2100,1130,2100,1130,2100,1130,2100,1130,2100,1130,2000
ChIJ6XpPWDvxNIgRy_iCBCIKULs,Sushi and Rolls,40.438294,-79.9990072,"301 Grant St, Pittsburgh, PA 15219, USA",301,Grant Street,Downtown,15219,,,4.8,22,,,1030,1400,1030,1400,1030,1400,1030,1400,1030,1400,,
ChIJi_tCb1rxNIgRpCJk0phr6Hk,The Original Mitchell's,40.4371294,-79.9965541,"304 Ross St, Pittsburgh, PA 15219, USA",304,Ross Street,Downtown,15219,,1,4.3,313,,,1100,0200,1100,0200,1100,0200,1100,0200,1100,0200,1800,0200
ChIJo1_OeVrxNIgRBzYzhDgFDUs,Chinatown Inn,40.43705310000001,-79.99735129999999,"520 Third Avenue, Pittsburgh, PA 15219, USA",520,Third Avenue,Downtown,15219,,2,4.3,1225,1400,2130,1100,2130,1100,2130,1100,2130,1100,2130,1100,2230,1200,2230
ChIJpbLpKfDxNIgR13yY0Fj4pjk,The Speckled Egg PGH,40.4397355,-79.9971547,"501 Grant St, Pittsburgh, PA 15219, USA",501,Grant Street,Downtown,15219,False,2,4.5,359,,,0700,1900,0700,1900,0700,1900,0700,1900,0700,1900,0800,1500
ChIJy8kvq17xNIgRh6cfPc53b3g,Cafe Fifth Avenue,40.4386764,-79.9920132,"818 Fifth Ave, Pittsburgh, PA 15219, USA",818,Fifth Avenue,Uptown,15219,,1,4.1,202,,,,,,,,,,,,,1400,1200
ChIJtXxPKjrxNIgRq5eY7Y0jNpk,"Waffles, INCaffeinated, Fifth Ave.",40.4395758,-79.9975807,"456 Fifth Ave, Pittsburgh, PA 15219, USA",456,Fifth Avenue,Downtown,15219,False,,4.4,735,0800,1500,0800,1400,0800,1400,0800,1400,0800,1400,0800,1400,0800,1500
ChIJP0u4k-HxNIgRpuycPjn19k8,De Fer Coffee & Tea @ The Highline,40.4299559,-79.9969902,"First floor (on the Highline, 339 McKean St, Pittsburgh, PA 15219, USA",339,McKean Street,South Side Flats,15219,,,4.9,88,0800,1500,0800,1500,0800,1500,0800,1500,0800,1500,0800,1500,0800,1500
ChIJO1CPWlHxNIgR-qYYdSPvOPU,Einstein Bros. Bagels,40.4400812,-80.0027794,"3 PPG Pl, Pittsburgh, PA 15222, USA",3,PPG Pl,Downtown,15222,,1,4.2,77,,,0600,1500,0600,1500,0600,1500,0600,1500,0600,1500,,
ChIJw-nExTjxNIgRxv_bo1Oofp4,Leon's Caribbean Food,40.42190099999999,-79.9928179,"823 E Warrington Ave, Pittsburgh, PA 15210, USA",823,East Warrington Avenue,Allentown,15210,,1,4.1,434,,,1100,2100,1100,2100,1100,2100,1100,2100,1100,2100,1100,2100
ChIJV0iQSDjxNIgRzGYFE9hqmpQ,Onion Maiden,40.421899,-79.995961,"639 E Warrington Ave, Pittsburgh, PA 15210, USA",639,East Warrington Avenue,Allentown,15210,,2,4.8,733,1600,2200,,,,,1600,2200,1600,2200,1600,2200,1700,2200
ChIJwVp98DjxNIgRXUNgcwCduIk,Breakfast at Shelly's,40.42170420000001,-79.99418709999999,"740 E Warrington Ave, Pittsburgh, PA 15210, USA",740,East Warrington Avenue,Allentown,15210,,1,4.4,298,0800,1500,0800,1500,0800,1500,0800,1500,0800,1500,0800,1500,0800,1500
ChIJz-V3hvrzNIgRnEmbGkha4AE,Fat Angelo's,40.4288129,-79.994599,"511 E Carson St, Pittsburgh, PA 15203, USA",511,East Carson Street,South Side Slopes,15203,True,1,3.9,240,1400,2230,1600,2230,,,1600,2230,1600,2230,1200,0000,1400,2230
ChIJUcZs5GnxNIgRDlz3mm9blf8,Kassab's Restaurant,40.42883519999999,-79.9860751,"1207 E Carson St, Pittsburgh, PA 15203, USA",1207,East Carson Street,South Side Flats,15203,,1,4.6,335,,,1100,2000,1100,2000,1100,2000,1100,2000,1100,2000,1100,2000
ChIJjxOdCELxNIgREF2hytDWW6w,Streets On Carson,40.4286135,-79.986628,"1120 E Carson St, Pittsburgh, PA 15203, USA",1120,East Carson Street,South Side Flats,15203,,2,4.7,372,1700,2200,,,,,,,1700,2200,1700,2200,1700,2200
ChIJe1ws7mnxNIgRO0liAjIzxa0,Doce Taqueria,40.4286123,-79.98512360000001,"1302 E Carson St, Pittsburgh, PA 15203, USA",1302,East Carson Street,South Side Flats,15203,,1,4.6,800,1130,2200,1130,2200,1130,2200,1130,2200,1130,2200,1130,0000,1130,0000
ChIJA8Cr32vxNIgRTtKdJVxfpH8,Dish Osteria Bar,40.4275025,-79.98230699999999,"128 S 17th St, Pittsburgh, PA 15203, USA",128,South 17th Street,South Side Flats,15203,True,3,4.8,306,,,,,1700,2330,1700,2330,1700,2330,1700,2330,1700,2330
ChIJQ4EHnmnxNIgRga05PiZw2jk,O'Leary's Restaurant,40.4286111,-79.98361109999999,"1412 E Carson St, Pittsburgh, PA 15203, USA",1412,East Carson Street,South Side Flats,15203,False,1,4.7,385,0700,1300,,,0700,1300,0700,1300,0700,1300,0700,1300,0700,1300
ChIJaTTi3hXxNIgRB4gYqFZVmWU,Cambod-Ican Kitchen Restaurant,40.4289631,-79.9819119,"1701 E Carson St, Pittsburgh, PA 15203, USA",1701,East Carson Street,South Side Flats,15203,,1,4.6,689,1730,0200,,,1730,0200,1730,0200,1730,0200,1730,0200,1730,0200
ChIJd-vid9vxNIgRMVnwpRrgj6g,Hilltop Tavern,40.421603,-79.9938454,"750 E Warrington Ave, Pittsburgh, PA 15210, USA",750,East Warrington Avenue,Allentown,15210,False,,4.5,60,1200,0000,,,1700,0100,1700,0100,1700,0100,1700,0200,1700,0200
ChIJb2a-1drxNIgR6frl-1OAOyI,Cilantro & Ajo,40.42877669999999,-79.9896928,"901 E Carson St, Pittsburgh, PA 15203, USA",901,East Carson Street,South Side Flats,15203,False,1,4.7,628,1130,1800,,,1130,2000,1130,2000,1130,2000,1130,2100,1130,2100
ChIJVUk52SDxNIgRYxrLC7R4pIs,Number One Kitchen,40.40532019999999,-79.9896675,"1107 Brownsville Rd, Pittsburgh, PA 15210, USA",1107,Brownsville Road,Carrick,15210,,1,4.1,208,1130,2030,1030,2030,1030,2030,1030,2030,1030,2030,1030,2100,1030,2100
ChIJ828bGiPxNIgR0SR1tTIcUbs,Aprimo Pizza,40.411635,-79.9899713,"516 Brownsville Rd, Pittsburgh, PA 15210, USA",516,Brownsville Road,Knoxville,15210,True,1,4.6,394,,,1600,2330,1600,2330,1600,2330,1500,2330,1500,2315,1500,2330
ChIJ0fRwkm7xNIgR4aK-gr_V2RY,Carmella's Plates & Pints,40.4284908,-79.9786951,"1908 E Carson St, Pittsburgh, PA 15203, USA",1908,East Carson Street,South Side Flats,15203,True,2,4.6,814,1100,0000,,,1600,0000,1600,0000,1600,0000,1600,0000,1100,0000
ChIJX9isi27xNIgRWY6b4OmCnQY,Hello Bistro,40.4284419,-79.9782472,"1922 E Carson St, Pittsburgh, PA 15203, USA",1922,East Carson Street,South Side Flats,15203,True,1,4.3,466,1100,2100,1100,2100,1100,2100,1100,2100,1100,2100,1100,2100,1100,2100
ChIJFS5dgnbxNIgRsl0CMLInqOI,Nadine's Restaurant,40.4264033,-79.9672918,"19 S 27th St, Pittsburgh, PA 15203, USA",19,South 27th Street,South Side Flats,15203,False,1,4.6,723,0900,0145,0630,0145,0630,0145,0630,0145,0630,0145,0630,0145,0900,0145
ChIJgzGA2snzNIgR59oa3k5YAL4,Sultry F&B,40.428949,-79.98111999999999,"1721 E Carson St, Pittsburgh, PA 15203, USA",1721,East Carson Street,South Side Flats,15203,True,,4.7,38,1000,1500,,,,,1230,2000,1100,2100,1100,2100,1000,2100
ChIJu8_ZdWnxNIgR8N1ozNLZCRY,Mike & Tony's Gyros,40.4286542,-79.98358019999999,"1414 E Carson St, Pittsburgh, PA 15203, USA",1414,East Carson Street,South Side Flats,15203,,1,4.5,1196,1100,2130,1100,2130,1100,2130,1100,2130,1100,0230,1100,0230,1100,0230
ChIJR-aD_lzxNIgRSD7XXZLNgY8,Ormsby Avenue Cafe,40.4125631,-79.98148200000001,"402 Ormsby Ave, Pittsburgh, PA 15210, USA",402,Ormsby Avenue,Mount Oliver,15210,True,,4.4,28,1500,2300,1800,2300,,,1500,2300,1500,2300,1500,2300,1500,2345
ChIJW_6TiQT0NIgRg7tUbgG1dKM,Carmi Soul Food Restaurant,40.428892,-79.97948800000002,"1825 E Carson St, Pittsburgh, PA 15203, USA",1825,East Carson Street,South Side Flats,15203,False,1,4.2,1411,1200,1900,,,,,1200,2200,1200,2200,1200,2200,1200,2200
ChIJPQBa7mnxNIgRrZuzs6OPCuc,Twelve Whiskey Barbecue,40.4286318,-79.9854843,"1222 E Carson St, Pittsburgh, PA 15203, USA",1222,East Carson Street,South Side Flats,15203,,2,4.1,514,1100,2200,1600,2200,1600,0200,1600,0200,1600,0200,1600,0200,1200,0200
ChIJiRQnssLwNIgR1tRZcU51tks,Nepali Asian Restaurant & Bar,40.392436,-79.98722210000001,"2122 Brownsville Rd, Pittsburgh, PA 15210, USA",2122,Brownsville Road,Carrick,15210,,,4,123,1030,2230,1030,2230,1030,2230,1030,2230,1030,2230,1030,2230,1030,2230
ChIJcWRRYMXwNIgRPVKPEUEB2Cg,Pizza 412,40.392238,-79.997446,"2080 Saw Mill Run Blvd, Pittsburgh, PA 15210, USA",2080,Saw Mill Run Boulevard,Overbrook,15210,True,1,3,195,1600,2300,1600,2300,,,1600,2300,1600,2300,1600,0000,1600,0000
ChIJ55ZDhCDxNIgR_psxm9MMqZw,Old Headz,40.39991009999999,-79.98933439999999,"1532 Brownsville Rd, Pittsburgh, PA 15210, USA",1532,Brownsville Road,Carrick,15210,,,4.2,112,1600,0200,1600,0200,1600,0200,1600,0200,1600,0200,1600,0200,1600,0200
ChIJvXzHpsLwNIgR2sPrq8hj4bs,Wing Street,40.39207469999999,-79.98713250000002,"2158 Brownsville Rd, Pittsburgh, PA 15210, USA",2158,Brownsville Road,Carrick,15210,True,2,2.3,3,1100,2100,1100,2100,1100,2100,1100,2100,1100,2100,1100,2100,1100,2100
ChIJPX3HpsLwNIgR7_u605fuHUY,Hunan Wok,40.391538,-79.9872736,"2158 Brownsville Rd, Pittsburgh, PA 15210, USA",2158,Brownsville Road,Carrick,15210,,,4,99,1200,2000,1100,2000,1100,2000,1100,2000,1100,2000,1100,2030,1100,2030
ChIJ_1b4IbjwNIgRjYRAhKZ1wTY,J B's Pizza Place,40.3822785,-79.9972707,"2513 Transport St, Pittsburgh, PA 15234, USA",2513,Transport Street,Overbrook,15234,,1,4.7,45,,,,,1600,2100,1600,2100,1600,2100,1600,2100,1600,2100
ChIJ0Tm13OvwNIgRd6Cyi2zNqzY,Donut Connection,40.38669280000001,-79.98226509999999,"2414 Brownsville Rd, Pittsburgh, PA 15210, USA",2414,Brownsville Road,Carrick,15210,,1,4.6,310,0600,1900,0500,1930,0500,1930,0500,1930,0500,1930,0500,1930,0600,1900
ChIJowOx8_TxNIgRcQXbjaDQvo0,Hazelwood Cafe,40.4079991,-79.94323949999999,"5017 Second Avenue, Pittsburgh, PA 15207, USA",5017,Second Avenue,Hazelwood,15207,False,,5,15,,,0700,1600,0700,1600,0700,1600,0700,1600,0700,1600,1100,1700
ChIJ8VB-Df_xNIgRa-D5onRVEdU,61C Cafe,40.4362361,-79.9226972,"1839 Murray Ave, Pittsburgh, PA 15217, USA",1839,Murray Avenue,Squirrel Hill South,15217,,1,4.4,273,0700,2100,0700,2100,0700,2100,0700,2100,0700,2100,0700,2100,0700,2100
ChIJvcPoEB_yNIgR-TeMN1nZJgg,Carnegie Mellon Cafe,40.4433937,-79.941864,"5000 Forbes Ave, Pittsburgh, PA 15213, USA",5000,Forbes Avenue,Squirrel Hill North,15213,False,2,3.4,71,1000,0000,0800,0000,0800,0000,0800,0000,0800,0000,0800,0000,1000,0000
ChIJmUD-Tg_yNIgRjX-pVSnbHHA,Cafe Rachel,40.4486507,-79.9252937,"1 Woodland Rd, Pittsburgh, PA 15232, USA",1,Woodland Road,Squirrel Hill North,15232,False,,4.1,37,1200,2200,0800,2200,0800,2200,0800,2200,0800,2200,0800,2000,,
ChIJwaWqIiTyNIgRTdPU35k894M,EatUnique,40.44560250000001,-79.94858339999999,"305 S Craig St, Pittsburgh, PA 15213, USA",305,South Craig Street,North Oakland,15213,True,2,4.4,406,1100,1800,1100,1800,1100,1800,1100,1800,1100,1800,1100,1800,1100,1800
ChIJPdv8abnwNIgRa5VzInjhU88,Dairy Queen Grill & Chill,40.3786482,-79.9899765,"2795 Saw Mill Run Blvd, Pittsburgh, PA 15227, USA",2795,Saw Mill Run Boulevard,Carrick,15227,,1,4.1,507,1100,2130,1100,2100,1100,2100,1100,2100,1100,2100,1100,2130,1100,2130
ChIJC_YhYcDzNIgRVzMjLFx3HZ8,Ron's Pizza Palace,40.46202969999999,-79.98394019999999,"1535 Lowrie St STE 2, Pittsburgh, PA 15212, USA",1535,Lowrie Street,Troy Hill,15212,True,1,4.6,126,1100,2100,1100,2100,1100,2100,1100,2100,1100,2100,1100,2100,1100,2100
ChIJJe_uOcDzNIgR8YLaMjdCm2g,Franks Pizza and Chicken,40.4613042,-79.9851728,"1442 Lowrie St, Pittsburgh, PA 15212, USA",1442,Lowrie Street,Troy Hill,15212,,1,4.3,205,1100,2130,1100,2130,1100,2130,1100,2130,1100,2130,1100,2130,1100,2130
ChIJiRi3FsPzNIgR5toi1zAe7_M,Osteria 2350,40.45426070000001,-79.9826045,"2350 Railroad St, Pittsburgh, PA 15222, USA",2350,Railroad Street,Strip District,15222,True,2,4.2,260,,,1100,2100,1100,2100,1100,2100,1100,2100,1100,2100,1100,2100
ChIJLRHyqyrzNIgRg1E9MSopuwM,The Hungry CowGirl Cocina,40.4594373,-79.9741568,"2945 Smallman St, Pittsburgh, PA 15201, USA",2945,Smallman Street,Strip District,15201,True,,4.6,30,1030,2130,,,,,1030,2130,1030,2130,1030,2130,1030,2130
ChIJR8TLzHzzNIgReN19aeZvS6k,Coop De Ville,40.4537454,-79.98227779999999,"2305 Smallman St, Pittsburgh, PA 15222, USA",2305,Smallman Street,Strip District,15222,,2,4.2,686,0700,2200,0700,2300,0700,2300,0700,2300,0700,2300,0700,0030,0700,0030
ChIJR-ud98TzNIgREwnaG2ksz6k,DiAnoia's Eatery,40.4549226,-79.97877729999999,"2549 Penn Ave, Pittsburgh, PA 15222, USA",2549,Penn Avenue,Strip District,15222,True,2,4.6,1498,1000,1430,,,0800,2100,0800,2100,0800,2100,0800,2200,0800,2200
ChIJs4HYnE_zNIgRoYZtaOT_RTM,Pizzeria Davide,40.45500020000001,-79.97882059999999,"2551 Penn Ave Rear, Pittsburgh, PA 15222, USA",2551,Penn Avenue,Strip District,15222,True,,4.2,202,1100,2100,,,1100,2100,1100,2100,1100,2100,1100,2100,1100,2100
ChIJoWlLstzzNIgRDds3XRCI9mk,Bar Marco,40.4524789,-79.9815241,"2216 Penn Ave, Pittsburgh, PA 15222, USA",2216,Penn Avenue,Strip District,15222,,2,4.6,547,,,,,1700,2200,1700,2200,1700,2200,1700,2200,1700,2200
ChIJrVe4FsPzNIgRaWOwAtTRFbM,Cioppino Restaurant & Cigar Bar,40.454337,-79.982522,"2350 Railroad St, Pittsburgh, PA 15222, USA",2350,Railroad Street,Strip District,15222,True,3,4.4,502,,,,,1600,2100,1600,2100,1600,2100,1600,2300,1600,2300
ChIJoViZxtzzNIgR--aU6Fhglr4,Pho Van,40.45199830000001,-79.9824908,"2120 Penn Ave, Pittsburgh, PA 15222, USA",2120,Penn Avenue,Strip District,15222,False,1,4.4,723,1100,2100,,,,,1200,2100,1200,2100,1100,2100,1100,2100
ChIJOZR61MDzNIgRsoLC_sqy2Os,Pane è Pronto,40.45553609999999,-79.9779523,"2627 Penn Ave, Pittsburgh, PA 15222, USA",2627,Penn Avenue,Strip District,15222,True,,4.8,42,,,,,0800,1800,0800,1800,0800,1800,0800,1800,0800,1800
ChIJ4SrQ-rTzNIgRBCWal8EzERk,Morcilla,40.46455630000001,-79.9660908,"3519 Butler St, Pittsburgh, PA 15201, USA",3519,Butler Street,Lower Lawrenceville,15201,False,3,4.7,724,,,,,1700,2100,1700,2100,1700,2100,1700,2200,1600,2200
ChIJF93Zb9HzNIgRaXsPqpc12X4,Grandma B's,40.44869449999999,-79.9705415,"2537 Wylie Ave, Pittsburgh, PA 15219, USA",2537,Wylie Avenue,Middle Hill,15219,,1,4.7,431,1000,1400,0800,1530,0800,1530,0800,1530,0800,1530,1415,1500,0900,1530
ChIJE4Rn39zzNIgReCoU59ojZys,Pamela's Diner,40.451934,-79.9836508,"60 21st St, Pittsburgh, PA 15222, USA",60,21st Street,Strip District,15222,,1,4.6,2177,0800,1400,0800,1400,0800,1400,0800,1400,0800,1400,0800,1400,0800,1400
ChIJ32HHK-7zNIgR2F3P1Ze_Veo,El Layali Cafe & Restaurant,40.45465189999999,-79.9792312,"2533 Penn Ave, Pittsburgh, PA 15222, USA",2533,Penn Avenue,Strip District,15222,,,4.7,228,1200,0200,1200,0100,1200,0100,1200,0100,1200,0100,1200,0200,1200,0200
ChIJubqwEWHtNIgRtWvOBB7IOkk,Edgar's Best Tacos,40.45086790000001,-79.98503099999999,"108 19th St, Pittsburgh, PA 15222, USA",108,19th Street,Strip District,15222,False,1,4.7,299,,,,,1100,1600,1100,1600,1100,1600,1100,1700,1100,1700
ChIJ5UoaTrPzNIgR67C6D3W0d-M,Piccolo Forno,40.4670037,-79.9643576,"3801 Butler St, Pittsburgh, PA 15201, USA",3801,Butler Street,Lower Lawrenceville,15201,False,2,4.5,807,,,,,1200,2100,1200,2100,1200,2100,1200,2200,1200,2200
ChIJZSp_uMXzNIgRfjYvmWaoQis,Preeti's Pitt LLC,40.45607469999999,-79.9770613,"2701 Penn Ave, Pittsburgh, PA 15222, USA",2701,Penn Avenue,Strip District,15222,,,4.1,384,1100,0200,,,1200,0200,,,1200,0200,1800,0200,1800,0200
ChIJlSQhw9zzNIgRulyV3c9lAFY,Luke Wholey's Wild Alaskan Grille,40.4517418,-79.9826271,"2106 Penn Ave, Pittsburgh, PA 15222, USA",2106,Penn Avenue,Strip District,15222,,2,4.5,1465,1100,1800,,,,,1600,2030,1600,2030,1100,2200,1100,2200
ChIJp6IO5NzzNIgRrBFr-HBNTP0,Enrico Biscotti Co,40.4513928,-79.9833003,"2022 Penn Ave, Pittsburgh, PA 15222, USA",2022,Penn Avenue,Strip District,15222,,2,4.7,389,0900,1600,0800,1600,0800,1600,0800,1600,0800,1600,0800,1600,0800,1600
ChIJj_TW6dzzNIgR-ibsuSNRjGE,Colangelo's Bakery & Cafe,40.4515742,-79.9827653,"207 21st St, Pittsburgh, PA 15222, USA",207,21st Street,Strip District,15222,,2,4.8,196,0800,1600,,,,,0800,1600,0800,1600,0800,1600,0800,1600
ChIJ7xNwnN3zNIgRKFNb1CKtMbU,Labad's Mediterranean Cafe And Grocery,40.4503388,-79.9854857,"1727 Penn Ave, Pittsburgh, PA 15222, USA",1727,Penn Avenue,Strip District,15222,,,4.8,26,1030,1530,0900,1700,0900,1700,0900,1700,0900,1700,0900,1700,0800,1700
ChIJ4UfTPd3zNIgR34mdMng6L5A,"Peace, Love and Little Donuts of the Strip District",40.45205840000001,-79.9837675,"50 21st St, Pittsburgh, PA 15222, USA",50,21st Street,Strip District,15222,True,2,4.6,625,0900,1600,0700,1400,0700,1400,0700,1700,0700,1700,0700,1700,0800,1700
ChIJX86zgOLzNIgRLAZcZrqlxGM,Penn City Grill,40.4443579,-79.9945772,"1000 Penn Ave, Pittsburgh, PA 15222, USA",1000,Penn Avenue,Downtown,15222,,,4.2,9,0630,1100,0630,1100,0630,1100,0630,1100,0630,1100,0630,1100,0630,1100
ChIJkeH5HDDxNIgRIVYWkBVWnIA,Uptown Kitchen,40.4373888,-79.98221579999999,"1710 Forbes Ave, Pittsburgh, PA 15219, USA",1710,Forbes Avenue,Uptown,15219,True,2,4.2,172,1100,0000,1000,0100,1000,0100,1000,0100,1000,0100,1000,0200,1000,0200
ChIJq3phq17xNIgRucm5U8KKeBw,Pizza Bosa,40.43897489999999,-79.9920003,"741 Fifth Ave, Pittsburgh, PA 15219, USA",741,Fifth Avenue,Downtown,15219,True,2,4.2,208,,,1000,0000,1000,0000,1000,0000,1000,0000,1000,0000,1100,0000
ChIJHxjv8F7xNIgRhDVc5_DVaDQ,Nakama,40.4401647,-79.9896646,"1001 Fifth Ave, Pittsburgh, PA 15219, USA",1001,Fifth Avenue,Downtown,15219,,,4.5,11,1200,2100,1600,2100,1200,2100,1200,2100,1200,2100,1200,2100,1200,2100
ChIJXZF5KTDyNIgR5hj8iNmdfOA,Social Circle Bar & Bistro,40.44018620000001,-79.9881927,"1320 Centre Ave Suite B, Pittsburgh, PA 15219, USA",1320,Centre Avenue,Downtown,15219,False,,1,4,,,,,,,,,,,,,,
ChIJd14Rc17xNIgRMq985izx13w,Pizza Milano,40.438587,-79.98796399999999,"1304 Fifth Ave, Pittsburgh, PA 15219, USA",1304,Fifth Avenue,Uptown,15219,,1,4.1,912,1000,0100,1000,0100,1000,0100,1000,0100,1000,0100,1000,0200,1000,0200
ChIJQVSrW-zxNIgRcGkeWKriZio,Barbirou Greek Gyro,40.4382355,-79.9966742,"414 Grant St, Pittsburgh, PA 15219, USA",414,Grant Street,Downtown,15219,,,,,,,0930,1530,0930,1530,0930,1530,0930,1530,0930,1530,,
ChIJ3wKdPGnxNIgRiJtL1pd8CF8,South Side BBQ Company,40.429375,-79.98178500000002,"75 S 17th St, Pittsburgh, PA 15203, USA",75,South 17th Street,South Side Flats,15203,,2,4.1,319,1600,2000,,,1600,2100,1600,2100,1600,2100,1600,2100,1600,2100
ChIJLQtjK7PxNIgR5YlDhRrYYo8,Moonlit Burgers Uptown,40.438116,-79.990262,"1023 Forbes Ave, Pittsburgh, PA 15219, USA",1023,Forbes Avenue,Uptown,15219,,,4.7,36,,,1100,1400,1100,2100,1100,2100,1100,2100,1100,2100,1100,2100
ChIJg1Gg6P_xNIgRRNlkdMt6ZPY,China Wok,40.43847470000001,-79.9887883,"1202 Fifth Ave, Pittsburgh, PA 15219, USA",1202,Fifth Avenue,Uptown,15219,,,4,199,1200,2200,1100,2200,1100,2200,1100,2200,1100,2200,1100,2200,1100,2200
ChIJTZLQxGDxNIgRHeH4OnpKHTQ,Pizza Care,40.4386944,-79.9843476,"1525 Fifth Ave, Pittsburgh, PA 15219, USA",1525,Fifth Avenue,Crawford-Roberts,15219,,2,4.1,375,1100,0100,1000,0100,1000,0100,1000,0100,1000,0100,1000,0300,1000,0300
ChIJ6TMXpl7xNIgR4-vh9b4eCeg,Souper Bowl,40.4387199,-79.9912827,"910 Fifth Ave, Pittsburgh, PA 15219, USA",910,Fifth Avenue,Uptown,15219,False,1,4.4,349,,,0700,1400,0700,1400,0700,1400,0700,1730,0700,1900,,
ChIJF7esbWnxNIgR1m6Ch1_sDic,Local Bar + Kitchen,40.4289444,-79.9828059,"1515 E Carson St, Pittsburgh, PA 15203, USA",1515,East Carson Street,South Side Flats,15203,False,2,3.7,595,1100,0000,,,,,1700,0000,1700,0200,1400,0200,1100,0200
ChIJUfzmm2nxNIgRmaf5sdOhKns,Starbucks,40.42873,-79.98404,"1400 E Carson St, Pittsburgh, PA 15203, USA",1400,East Carson Street,South Side Flats,15203,,2,4.3,437,0530,1930,0530,2000,0530,2000,0530,2000,0530,2000,0530,2000,0530,1930
ChIJb124KRvxNIgRtPTtULeDL9Y,Chai Khana & hookah lounge,40.4287303,-79.98307799999999,"1506 E Carson St, Pittsburgh, PA 15203, USA",1506,East Carson Street,South Side Flats,15203,True,,4.4,13,1800,0000,1800,0000,1800,0000,1800,0000,1800,0000,1800,0200,1800,0200
ChIJX0eblW7xNIgR_VvkZXA_YRQ,Just Good Donuts,40.42846589999999,-79.9793686,"1830 E Carson St, Pittsburgh, PA 15203, USA",1830,East Carson Street,South Side Flats,15203,False,,4.5,71,0800,2000,0800,2000,0800,2000,0800,2000,0800,2000,0800,2000,0800,2000
ChIJHVYbynbxNIgRuQy3ve8SLac,"Waffles, INCaffeinated, South Side",40.4278494,-79.9692986,"2517 E Carson St, Pittsburgh, PA 15203, USA",2517,East Carson Street,South Side Flats,15203,False,2,4.2,1218,0800,1500,0800,1400,0800,1400,0800,1400,0800,1400,0800,1400,0800,1500
ChIJVV_6nJ_xNIgRSoAWAJqhnJI,La Bodega,40.4286901,-79.9832394,"1502 E Carson St, Pittsburgh, PA 15203, USA",1502,East Carson Street,South Side Flats,15203,True,1,4.2,83,1200,2300,1200,0000,1200,0000,1200,0000,1200,0200,1200,0300,1200,0300
ChIJKbZvAhzxNIgRTYPC3TADwBE,Soul & Sea,40.4285976,-79.9810475,"1728 E Carson St, Pittsburgh, PA 15203, USA",1728,East Carson Street,South Side Flats,15203,,,3.4,96,,,,,1200,2000,1200,2000,1200,2300,1200,2300,1200,2300
ChIJGd8THP3xNIgRjVDaUr8_mzs,The Meatball Company,40.42868879999999,-79.98561839999999,"1220 E Carson St, Pittsburgh, PA 15203, USA",1220,East Carson Street,South Side Flats,15203,True,1,4.4,34,,,,,1100,2000,1100,2000,1100,2000,1100,2100,1200,2100
ChIJ-Qv-FjPxNIgRtnYGlH8BN7o,Bird on the Run South Side,40.4290141,-79.98092799999999,"1733 E Carson St, Pittsburgh, PA 15203, USA",1733,East Carson Street,South Side Flats,15203,False,1,4,92,1100,2100,1100,2300,1100,2300,1100,0000,1100,0000,1100,0200,1100,0200
ChIJ0f005GnxNIgR97iNHfJPwho,The Urban Tap,40.4289281,-79.9859266,"1209 E Carson St, Pittsburgh, PA 15203, USA",1209,East Carson Street,South Side Flats,15203,,2,4.4,808,1000,2300,1100,0000,1100,0000,1100,0000,1100,0000,1100,0100,1000,0100
ChIJv--DbWnxNIgRR7NSNMmRJOA,Mario's South Side Saloon,40.4286863,-79.9828963,"1514 E Carson St, Pittsburgh, PA 15203, USA",1514,East Carson Street,South Side Flats,15203,False,2,4,873,1100,0200,1630,0200,1630,0200,1630,0200,1630,0200,1100,0200,1100,0200
ChIJKXoXk2nxNIgRGa8v_798ORA,The Smiling Moose,40.42858400000001,-79.9849483,"1306 E Carson St, Pittsburgh, PA 15203, USA",1306,East Carson Street,South Side Flats,15203,False,1,4.5,738,1200,2100,1200,2200,1200,2200,1200,2200,1200,2200,1200,0000,1200,0000
ChIJZfTzP2nxNIgRuAaYOtWmtWc,Nakama,40.4290289,-79.98222489999999,"1611 E Carson St, Pittsburgh, PA 15203, USA",1611,East Carson Street,South Side Flats,15203,,2,4.1,1115,1200,2000,1100,2000,1100,2000,1100,2000,1100,2000,1100,2100,1100,2100
ChIJD2K7dGnxNIgRzr9L22s5MRg,Finn Mc Cools,40.4289747,-79.98330279999999,"1501 E Carson St, Pittsburgh, PA 15203, USA",1501,East Carson Street,South Side Flats,15203,False,2,3.9,121,,,,,,,,,2000,0200,2000,0200,2000,0200
ChIJdZjQx27xNIgROx5Oy5ORrK0,Fat Head's Saloon,40.42896669999999,-79.9801756,"1805 E Carson St, Pittsburgh, PA 15203, USA",1805,East Carson Street,South Side Flats,15203,,2,4.5,2654,1100,2200,,,,,1100,2200,1100,2200,1100,2300,1100,2300
ChIJRZ2ndmnxNIgR8ubLmtt-fhs,The Flats on Carson,40.4286863,-79.98332189999999,"1500 E Carson St, Pittsburgh, PA 15203, USA",1500,East Carson Street,South Side Flats,15203,False,2,3.5,282,1400,0200,,,,,,,2000,0200,1700,0200,1700,0200
ChIJ1YxkmmnxNIgRbGCperwJue4,Big Shot Bob's House of Wings - South Side,40.4287,-79.9842822,"1324 E Carson St, Pittsburgh, PA 15203, USA",1324,East Carson Street,South Side Flats,15203,,2,4,390,1100,2300,1100,2300,1100,2300,1100,2300,1100,2300,1100,2300,1100,2300
ChIJqd6KkGnxNIgRRAxQ-Cq5Has,Sal's Pizza,40.42872439999999,-79.9844052,"1322 E Carson St, Pittsburgh, PA 15203, USA",1322,East Carson Street,South Side Flats,15203,False,1,4.1,204,1730,0300,1730,0300,1730,0300,1730,0300,1730,0300,1730,0300,1730,0300
ChIJw0UXPDvxNIgRKbRr3ODSkC4,Doughbar,40.4288848,-79.9792013,"1831 E Carson St, Pittsburgh, PA 15203, USA",1831,East Carson Street,South Side Flats,15203,True,2,4.3,93,1200,2100,,,,,1700,0000,1700,0000,1700,0200,1200,0200
ChIJizwqlW7xNIgRYil6lwmWaow,Primanti Bros. Restaurant and Bar South Side,40.4284213,-79.97930869999999,"1832 E Carson St, Pittsburgh, PA 15203, USA",1832,East Carson Street,South Side Flats,15203,True,1,4.3,1121,1100,0000,1100,0000,1100,0000,1100,0000,1100,0100,1100,0100,1100,0100
ChIJZzOOvrDxNIgRg3CDDJJaEco,Bonfire Food and Drink,40.4283188,-79.9761115,"2100 E Carson St, Pittsburgh, PA 15203, USA",2100,East Carson Street,South Side Flats,15203,,2,4.5,298,1100,1600,,,1600,2200,1600,2200,1600,2200,1600,2300,1100,2300
